Wavecontrol MonitEM data
Date: 08/26/2021 07:59:23
MonitEM Serial: 13MT0276
Probe serial: 13WP040321
Frecuencies: 100kHz-8GHz
Units: V/m
Date,Time,Value,GPGGA,gps_time,lat,N/S,lon,E/O,fix,number_satellites,diution,height,M,geoid_height,M,,*CRC,GPGSA,A,3D_fix,PRN,PRN,PRN,PRN,PRN,PRN,PRN,PRN,PRN,PRN,PRN,PRN,PDOP,HDOP,VDOP*CRC
2021/08/26,07:13:42,0.59,$GPGGA,,,,,,0,,,,,,,,*66,$GPGSA,A,1,,,,,,,,,,,,,,,*1E
2021/08/26,07:13:43,0.72,$GPGGA,,,,,,0,,,,,,,,*66,$GPGSA,A,1,,,,,,,,,,,,,,,*1E
2021/08/26,07:13:44,0.72,$GPGGA,,,,,,0,,,,,,,,*66,$GPGSA,A,1,,,,,,,,,,,,,,,*1E
2021/08/26,07:13:45,0.73,$GPGGA,,,,,,0,,,,,,,,*66,$GPGSA,A,1,,,,,,,,,,,,,,,*1E
2021/08/26,07:13:46,0.76,$GPGGA,,,,,,0,,,,,,,,*66,$GPGSA,A,1,,,,,,,,,,,,,,,*1E
2021/08/26,07:13:47,0.68,$GPGGA,,,,,,0,,,,,,,,*66,$GPGSA,A,1,,,,,,,,,,,,,,,*1E
2021/08/26,07:13:48,0.69,$GPGGA,,,,,,0,,,,,,,,*66,$GPGSA,A,1,,,,,,,,,,,,,,,*1E
2021/08/26,07:13:49,0.70,$GPGGA,,,,,,0,,,,,,,,*66,$GPGSA,A,1,,,,,,,,,,,,,,,*1E
2021/08/26,07:13:50,0.68,$GPGGA,,,,,,0,,,,,,,,*66,$GPGSA,A,1,,,,,,,,,,,,,,,*1E
2021/08/26,07:13:51,0.76,$GPGGA,,,,,,0,,,,,,,,*66,$GPGSA,A,1,,,,,,,,,,,,,,,*1E
2021/08/26,07:13:52,0.87,$GPGGA,,,,,,0,,,,,,,,*66,$GPGSA,A,1,,,,,,,,,,,,,,,*1E
2021/08/26,07:13:53,0.81,$GPGGA,101356.2,,,,,0,,,,,,,,*7A,$GPGSA,A,1,,,,,,,,,,,,,,,*1E
2021/08/26,07:13:54,0.70,$GPGGA,101357.2,,,,,0,,,,,,,,*7B,$GPGSA,A,1,,,,,,,,,,,,,,,*1E
2021/08/26,07:13:55,0.66,$GPGGA,101358.2,,,,,0,,,,,,,,*74,$GPGSA,A,1,,,,,,,,,,,,,,,*1E
2021/08/26,07:13:56,0.65,$GPGGA,101359.2,,,,,0,,,,,,,,*75,$GPGSA,A,1,,,,,,,,,,,,,,,*1E
2021/08/26,07:13:57,0.64,$GPGGA,101400.2,,,,,0,,,,,,,,*7E,$GPGSA,A,1,,,,,,,,,,,,,,,*1E
2021/08/26,07:13:58,0.63,$GPGGA,101401.2,,,,,0,,,,,,,,*7F,$GPGSA,A,1,,,,,,,,,,,,,,,*1E
2021/08/26,07:13:59,0.66,$GPGGA,101402.2,,,,,0,,,,,,,,*7C,$GPGSA,A,1,,,,,,,,,,,,,,,*1E
2021/08/26,07:14:00,0.64,$GPGGA,101403.2,,,,,0,,,,,,,,*7D,$GPGSA,A,1,,,,,,,,,,,,,,,*1E
2021/08/26,07:14:01,0.81,$GPGGA,101404.2,,,,,0,,,,,,,,*7A,$GPGSA,A,1,,,,,,,,,,,,,,,*1E
2021/08/26,07:14:02,0.65,$GPGGA,101405.2,,,,,0,,,,,,,,*7B,$GPGSA,A,1,,,,,,,,,,,,,,,*1E
2021/08/26,07:14:03,0.68,$GPGGA,101406.2,,,,,0,,,,,,,,*78,$GPGSA,A,1,,,,,,,,,,,,,,,*1E
2021/08/26,07:14:04,0.59,$GPGGA,101407.2,,,,,0,,,,,,,,*79,$GPGSA,A,1,,,,,,,,,,,,,,,*1E
2021/08/26,07:14:05,0.65,$GPGGA,101408.2,,,,,0,,,,,,,,*76,$GPGSA,A,1,,,,,,,,,,,,,,,*1E
2021/08/26,07:14:06,0.64,$GPGGA,101409.2,,,,,0,,,,,,,,*77,$GPGSA,A,1,,,,,,,,,,,,,,,*1E
2021/08/26,07:14:07,0.58,$GPGGA,101410.2,,,,,0,,,,,,,,*7F,$GPGSA,A,1,,,,,,,,,,,,,,,*1E
2021/08/26,07:14:08,0.60,$GPGGA,101411.2,,,,,0,,,,,,,,*7E,$GPGSA,A,1,,,,,,,,,,,,,,,*1E
2021/08/26,07:14:09,0.60,$GPGGA,101412.2,,,,,0,,,,,,,,*7D,$GPGSA,A,1,,,,,,,,,,,,,,,*1E
2021/08/26,07:14:10,0.58,$GPGGA,101413.2,,,,,0,,,,,,,,*7C,$GPGSA,A,1,,,,,,,,,,,,,,,*1E
2021/08/26,07:14:11,0.62,$GPGGA,101414.2,,,,,0,,,,,,,,*7B,$GPGSA,A,1,,,,,,,,,,,,,,,*1E
2021/08/26,07:14:12,0.51,$GPGGA,101415.2,,,,,0,,,,,,,,*7A,$GPGSA,A,1,,,,,,,,,,,,,,,*1E
2021/08/26,07:14:13,0.58,$GPGGA,101416.2,,,,,0,,,,,,,,*79,$GPGSA,A,1,,,,,,,,,,,,,,,*1E
2021/08/26,07:14:14,0.58,$GPGGA,101417.2,,,,,0,,,,,,,,*78,$GPGSA,A,1,,,,,,,,,,,,,,,*1E
2021/08/26,07:14:15,0.57,$GPGGA,101418.2,,,,,0,,,,,,,,*77,$GPGSA,A,1,,,,,,,,,,,,,,,*1E
2021/08/26,07:14:16,0.58,$GPGGA,101419.2,,,,,0,,,,,,,,*76,$GPGSA,A,1,,,,,,,,,,,,,,,*1E
2021/08/26,07:14:17,0.68,$GPGGA,101420.2,,,,,0,,,,,,,,*7C,$GPGSA,A,1,,,,,,,,,,,,,,,*1E
2021/08/26,07:14:18,0.64,$GPGGA,101420.5,,,,,0,,,,,,,,*7B,$GPGSA,A,1,,,,,,,,,,,,,,,*1E
2021/08/26,07:14:19,0.62,$GPGGA,101421.2,,,,,0,,,,,,,,*7D,$GPGSA,A,1,,,,,,,,,,,,,,,*1E
2021/08/26,07:14:20,0.58,$GPGGA,101422.0,,,,,0,,,,,,,,*7C,$GPGSA,A,1,,,,,,,,,,,,,,,*1E
2021/08/26,07:14:21,0.60,$GPGGA,101423.0,,,,,0,,,,,,,,*7D,$GPGSA,A,1,,,,,,,,,,,,,,,*1E
2021/08/26,07:14:22,0.59,$GPGGA,101424.0,,,,,0,,,,,,,,*7A,$GPGSA,A,1,,,,,,,,,,,,,,,*1E
2021/08/26,07:15:04,0.61,$GPGGA,,,,,,0,,,,,,,,*66,$GPGSA,A,1,,,,,,,,,,,,,,,*1E
2021/08/26,07:15:05,0.71,$GPGGA,,,,,,0,,,,,,,,*66,$GPGSA,A,1,,,,,,,,,,,,,,,*1E
2021/08/26,07:15:06,0.65,$GPGGA,,,,,,0,,,,,,,,*66,$GPGSA,A,1,,,,,,,,,,,,,,,*1E
2021/08/26,07:15:07,0.84,$GPGGA,,,,,,0,,,,,,,,*66,$GPGSA,A,1,,,,,,,,,,,,,,,*1E
2021/08/26,07:15:08,0.84,$GPGGA,,,,,,0,,,,,,,,*66,$GPGSA,A,1,,,,,,,,,,,,,,,*1E
2021/08/26,07:15:09,0.55,$GPGGA,,,,,,0,,,,,,,,*66,$GPGSA,A,1,,,,,,,,,,,,,,,*1E
2021/08/26,07:15:10,0.70,$GPGGA,,,,,,0,,,,,,,,*66,$GPGSA,A,1,,,,,,,,,,,,,,,*1E
2021/08/26,07:15:11,0.73,$GPGGA,101513.2,,,,,0,,,,,,,,*7D,$GPGSA,A,1,,,,,,,,,,,,,,,*1E
2021/08/26,07:15:12,0.51,$GPGGA,101514.0,,,,,0,,,,,,,,*78,$GPGSA,A,1,,,,,,,,,,,,,,,*1E
2021/08/26,07:15:13,0.54,$GPGGA,101515.0,,,,,0,,,,,,,,*79,$GPGSA,A,1,,,,,,,,,,,,,,,*1E
2021/08/26,07:15:14,0.54,$GPGGA,101516.0,,,,,0,,,,,,,,*7A,$GPGSA,A,1,,,,,,,,,,,,,,,*1E
2021/08/26,07:15:15,0.48,$GPGGA,101517.0,,,,,0,,,,,,,,*7B,$GPGSA,A,1,,,,,,,,,,,,,,,*1E
2021/08/26,07:15:16,0.50,$GPGGA,101518.0,,,,,0,,,,,,,,*74,$GPGSA,A,1,,,,,,,,,,,,,,,*1E
2021/08/26,07:15:17,0.50,$GPGGA,101519.0,,,,,0,,,,,,,,*75,$GPGSA,A,1,,,,,,,,,,,,,,,*1E
2021/08/26,07:15:18,0.52,$GPGGA,101520.0,,,,,0,,,,,,,,*7F,$GPGSA,A,1,,,,,,,,,,,,,,,*1E
2021/08/26,07:15:19,0.44,$GPGGA,101521.0,,,,,0,,,,,,,,*7E,$GPGSA,A,1,,,,,,,,,,,,,,,*1E
2021/08/26,07:15:20,0.47,$GPGGA,101522.0,,,,,0,,,,,,,,*7D,$GPGSA,A,1,,,,,,,,,,,,,,,*1E
2021/08/26,07:15:21,0.51,$GPGGA,101523.0,,,,,0,,,,,,,,*7C,$GPGSA,A,1,,,,,,,,,,,,,,,*1E
2021/08/26,07:15:22,0.52,$GPGGA,101524.0,,,,,0,,,,,,,,*7B,$GPGSA,A,1,,,,,,,,,,,,,,,*1E
2021/08/26,07:15:23,0.48,$GPGGA,101525.0,,,,,0,,,,,,,,*7A,$GPGSA,A,1,,,,,,,,,,,,,,,*1E
2021/08/26,07:15:24,0.50,$GPGGA,101526.0,,,,,0,,,,,,,,*79,$GPGSA,A,1,,,,,,,,,,,,,,,*1E
2021/08/26,07:15:25,0.48,$GPGGA,101527.0,,,,,0,,,,,,,,*78,$GPGSA,A,1,,,,,,,,,,,,,,,*1E
2021/08/26,07:15:26,0.59,$GPGGA,101528.0,,,,,0,,,,,,,,*77,$GPGSA,A,1,,,,,,,,,,,,,,,*1E
2021/08/26,07:15:27,0.47,$GPGGA,101529.0,,,,,0,,,,,,,,*76,$GPGSA,A,1,,,,,,,,,,,,,,,*1E
2021/08/26,07:15:28,0.56,$GPGGA,101530.0,,,,,0,,,,,,,,*7E,$GPGSA,A,1,,,,,,,,,,,,,,,*1E
2021/08/26,07:15:29,0.49,$GPGGA,101531.0,,,,,0,,,,,,,,*7F,$GPGSA,A,1,,,,,,,,,,,,,,,*1E
2021/08/26,07:15:30,0.56,$GPGGA,101532.0,,,,,0,,,,,,,,*7C,$GPGSA,A,1,,,,,,,,,,,,,,,*1E
2021/08/26,07:15:31,0.49,$GPGGA,101533.0,0552.814075,S,03512.927051,W,1,08,1.1,53.7,M,0.0,M,,*5F,$GPGSA,A,3,01,03,04,14,16,21,22,30,,,,,1.9,1.1,1.5*3A
2021/08/26,07:15:32,0.57,$GPGGA,101534.0,0552.813991,S,03512.927201,W,1,08,1.1,55.3,M,0.0,M,,*59,$GPGSA,A,3,01,03,04,14,16,21,22,30,,,,,1.9,1.1,1.5*3A
2021/08/26,07:15:33,0.59,$GPGGA,101535.0,0552.813799,S,03512.927465,W,1,08,1.1,57.2,M,0.0,M,,*59,$GPGSA,A,3,01,03,04,14,16,21,22,30,,,,,1.9,1.1,1.5*3A
2021/08/26,07:15:34,0.52,$GPGGA,101536.0,0552.813569,S,03512.927787,W,1,08,1.1,58.4,M,0.0,M,,*51,$GPGSA,A,3,01,03,04,14,16,21,22,30,,,,,1.9,1.1,1.5*3A
2021/08/26,07:15:35,0.52,$GPGGA,101537.0,0552.813429,S,03512.927989,W,1,08,1.1,59.3,M,0.0,M,,*53,$GPGSA,A,3,01,03,04,14,16,21,22,30,,,,,1.9,1.1,1.5*3A
2021/08/26,07:15:36,0.54,$GPGGA,101538.0,0552.813347,S,03512.928122,W,1,08,1.1,59.6,M,0.0,M,,*50,$GPGSA,A,3,01,03,04,14,16,21,22,30,,,,,1.9,1.1,1.5*3A
2021/08/26,07:15:37,0.45,$GPGGA,101539.0,0552.813302,S,03512.928158,W,1,08,1.1,59.9,M,0.0,M,,*52,$GPGSA,A,3,01,03,04,14,16,21,22,30,,,,,1.9,1.1,1.5*3A
2021/08/26,07:15:38,0.53,$GPGGA,101540.0,0552.813262,S,03512.928148,W,1,08,1.1,60.3,M,0.0,M,,*5A,$GPGSA,A,3,01,03,04,14,16,21,22,30,,,,,1.9,1.1,1.5*3A
2021/08/26,07:15:39,0.53,$GPGGA,101541.0,0552.813259,S,03512.928205,W,1,08,1.1,60.6,M,0.0,M,,*5C,$GPGSA,A,3,01,03,04,14,16,21,22,30,,,,,1.9,1.1,1.5*3A
2021/08/26,07:15:40,0.55,$GPGGA,101542.0,0552.813244,S,03512.928250,W,1,08,1.1,60.8,M,0.0,M,,*5D,$GPGSA,A,3,01,03,04,14,16,21,22,30,,,,,1.9,1.1,1.5*3A
2021/08/26,07:15:41,0.52,$GPGGA,101543.0,0552.813229,S,03512.928275,W,1,08,1.1,60.8,M,0.0,M,,*50,$GPGSA,A,3,01,03,04,14,16,21,22,30,,,,,1.9,1.1,1.5*3A
2021/08/26,07:15:42,0.72,$GPGGA,101544.0,0552.813224,S,03512.928290,W,1,08,1.1,60.9,M,0.0,M,,*50,$GPGSA,A,3,01,03,04,14,16,21,22,30,,,,,1.9,1.1,1.5*3A
2021/08/26,07:15:43,0.52,$GPGGA,101545.0,0552.813226,S,03512.928301,W,1,08,1.1,60.9,M,0.0,M,,*5A,$GPGSA,A,3,01,03,04,14,16,21,22,30,,,,,1.9,1.1,1.5*3A
2021/08/26,07:15:44,0.51,$GPGGA,101546.0,0552.813229,S,03512.928308,W,1,08,1.1,60.9,M,0.0,M,,*5F,$GPGSA,A,3,01,03,04,14,16,21,22,30,,,,,1.9,1.1,1.5*3A
2021/08/26,07:15:45,0.50,$GPGGA,101547.0,0552.813231,S,03512.928314,W,1,08,1.1,60.9,M,0.0,M,,*5A,$GPGSA,A,3,01,03,04,14,16,21,22,30,,,,,1.9,1.1,1.5*3A
2021/08/26,07:15:46,0.53,$GPGGA,101548.0,0552.813325,S,03512.928402,W,1,08,1.1,60.9,M,0.0,M,,*51,$GPGSA,A,3,01,03,04,14,16,21,22,30,,,,,1.9,1.1,1.5*3A
2021/08/26,07:15:47,0.46,$GPGGA,101549.0,0552.813391,S,03512.928584,W,1,08,1.1,61.0,M,0.0,M,,*58,$GPGSA,A,3,01,03,04,14,16,21,22,30,,,,,2.0,1.1,1.7*32
2021/08/26,07:15:48,0.50,$GPGGA,101550.0,0552.813381,S,03512.928852,W,1,08,1.1,61.2,M,0.0,M,,*55,$GPGSA,A,3,01,03,04,14,16,21,22,30,,,,,2.0,1.1,1.7*32
2021/08/26,07:15:49,0.33,$GPGGA,101551.0,0552.813561,S,03512.929194,W,1,08,1.1,60.8,M,0.0,M,,*55,$GPGSA,A,3,01,03,04,14,16,21,22,30,,,,,1.9,1.1,1.5*3A
2021/08/26,07:15:50,0.28,$GPGGA,101552.0,0552.813924,S,03512.929717,W,1,08,1.1,60.3,M,0.0,M,,*5D,$GPGSA,A,3,01,03,04,14,16,21,22,30,,,,,1.9,1.1,1.5*3A
2021/08/26,07:15:51,0.33,$GPGGA,101553.0,0552.814669,S,03512.930363,W,1,08,1.1,59.8,M,0.0,M,,*53,$GPGSA,A,3,01,03,04,14,16,21,22,30,,,,,1.9,1.1,1.5*3A
2021/08/26,07:15:52,0.32,$GPGGA,101554.0,0552.815408,S,03512.930962,W,1,08,1.1,59.6,M,0.0,M,,*55,$GPGSA,A,3,01,03,04,14,16,21,22,30,,,,,1.9,1.1,1.5*3A
2021/08/26,07:15:53,0.29,$GPGGA,101555.0,0552.816267,S,03512.931286,W,1,08,1.1,58.8,M,0.0,M,,*57,$GPGSA,A,3,01,03,04,14,16,21,22,30,,,,,1.9,1.1,1.5*3A
2021/08/26,07:15:54,0.34,$GPGGA,101556.0,0552.817086,S,03512.931447,W,1,08,1.1,58.4,M,0.0,M,,*5F,$GPGSA,A,3,01,03,04,14,16,21,22,30,,,,,1.9,1.1,1.5*3A
2021/08/26,07:15:55,0.33,$GPGGA,101557.0,0552.817494,S,03512.931286,W,1,08,1.1,59.0,M,0.0,M,,*57,$GPGSA,A,3,01,03,04,14,16,21,22,30,,,,,1.9,1.1,1.5*3A
2021/08/26,07:15:56,0.46,$GPGGA,101558.0,0552.817598,S,03512.930577,W,1,08,1.1,59.3,M,0.0,M,,*5E,$GPGSA,A,3,01,03,04,14,16,21,22,30,,,,,1.9,1.1,1.5*3A
2021/08/26,07:15:57,0.37,$GPGGA,101559.0,0552.817550,S,03512.929553,W,1,08,1.1,59.6,M,0.0,M,,*50,$GPGSA,A,3,01,03,04,14,16,21,22,30,,,,,1.9,1.1,1.5*3A
2021/08/26,07:15:58,0.27,$GPGGA,101600.0,0552.817149,S,03512.928495,W,1,08,1.1,60.2,M,0.0,M,,*57,$GPGSA,A,3,01,03,04,14,16,21,22,30,,,,,1.9,1.1,1.5*3A
2021/08/26,07:15:59,0.31,$GPGGA,101601.0,0552.816810,S,03512.927340,W,1,08,1.1,60.3,M,0.0,M,,*53,$GPGSA,A,3,01,03,04,14,16,21,22,30,,,,,1.9,1.1,1.5*3A
2021/08/26,07:16:00,0.31,$GPGGA,101602.0,0552.816354,S,03512.926264,W,1,08,1.1,60.1,M,0.0,M,,*5F,$GPGSA,A,3,01,03,04,14,16,21,22,30,,,,,1.9,1.1,1.5*3A
2021/08/26,07:16:01,0.31,$GPGGA,101603.0,0552.815920,S,03512.925138,W,1,08,1.1,59.5,M,0.0,M,,*53,$GPGSA,A,3,01,03,04,14,16,21,22,30,,,,,1.9,1.1,1.5*3A
2021/08/26,07:16:02,0.32,$GPGGA,101604.0,0552.815490,S,03512.924388,W,1,08,1.1,59.1,M,0.0,M,,*5E,$GPGSA,A,3,01,03,04,14,16,21,22,30,,,,,1.9,1.1,1.5*3A
2021/08/26,07:16:03,0.34,$GPGGA,101605.0,0552.815136,S,03512.923832,W,1,08,1.1,58.5,M,0.0,M,,*5E,$GPGSA,A,3,01,03,04,14,16,21,22,30,,,,,1.9,1.1,1.5*3A
2021/08/26,07:16:04,0.35,$GPGGA,101606.0,0552.815015,S,03512.923607,W,1,08,1.1,58.5,M,0.0,M,,*55,$GPGSA,A,3,01,03,04,14,16,21,22,30,,,,,1.9,1.1,1.5*3A
2021/08/26,07:16:05,0.38,$GPGGA,101607.0,0552.814993,S,03512.923095,W,1,08,1.2,58.4,M,0.0,M,,*5D,$GPGSA,A,3,01,03,04,14,16,21,22,30,,,,,1.9,1.2,1.5*39
2021/08/26,07:16:06,0.31,$GPGGA,101608.0,0552.815021,S,03512.922569,W,1,08,1.2,58.5,M,0.0,M,,*55,$GPGSA,A,3,01,03,04,14,16,21,22,30,,,,,1.9,1.2,1.5*39
2021/08/26,07:16:07,0.28,$GPGGA,101609.0,0552.815049,S,03512.922196,W,1,08,1.1,58.6,M,0.0,M,,*5E,$GPGSA,A,3,01,03,04,14,16,21,22,30,,,,,1.9,1.1,1.5*3A
2021/08/26,07:16:08,0.29,$GPGGA,101610.0,0552.815168,S,03512.921971,W,1,08,1.1,58.7,M,0.0,M,,*57,$GPGSA,A,3,01,03,04,14,16,21,22,30,,,,,1.9,1.1,1.5*3A
2021/08/26,07:16:09,0.31,$GPGGA,101611.0,0552.815346,S,03512.921855,W,1,08,1.1,58.9,M,0.0,M,,*51,$GPGSA,A,3,01,03,04,14,16,21,22,30,,,,,1.9,1.1,1.5*3A
2021/08/26,07:16:10,0.26,$GPGGA,101612.0,0552.815428,S,03512.921520,W,1,07,1.1,59.2,M,0.0,M,,*57,$GPGSA,A,3,01,03,04,14,16,22,30,,,,,,1.9,1.1,1.5*39
2021/08/26,07:16:11,0.34,$GPGGA,101613.0,0552.815418,S,03512.921041,W,1,07,1.1,59.2,M,0.0,M,,*57,$GPGSA,A,3,01,03,04,14,16,22,30,,,,,,1.9,1.1,1.5*39
2021/08/26,07:16:12,0.39,$GPGGA,101614.0,0552.815354,S,03512.920512,W,1,07,1.1,59.0,M,0.0,M,,*5F,$GPGSA,A,3,01,03,04,14,16,22,30,,,,,,1.9,1.1,1.5*39
2021/08/26,07:16:13,0.40,$GPGGA,101615.0,0552.815359,S,03512.920124,W,1,07,1.1,59.2,M,0.0,M,,*50,$GPGSA,A,3,01,03,04,14,16,22,30,,,,,,1.9,1.1,1.5*39
2021/08/26,07:16:14,0.35,$GPGGA,101616.0,0552.815419,S,03512.919876,W,1,07,1.1,58.9,M,0.0,M,,*5E,$GPGSA,A,3,01,03,04,14,16,22,30,,,,,,1.9,1.1,1.5*39
2021/08/26,07:16:15,0.34,$GPGGA,101617.0,0552.815498,S,03512.919687,W,1,07,1.1,58.9,M,0.0,M,,*56,$GPGSA,A,3,01,03,04,14,16,22,30,,,,,,1.9,1.1,1.5*39
2021/08/26,07:16:16,0.28,$GPGGA,101618.0,0552.815537,S,03512.919536,W,1,07,1.7,58.9,M,0.0,M,,*52,$GPGSA,A,3,01,03,04,14,16,22,30,,,,,,2.3,1.7,1.5*36
2021/08/26,07:16:17,0.28,$GPGGA,101619.0,0552.815556,S,03512.919441,W,1,07,1.7,58.9,M,0.0,M,,*55,$GPGSA,A,3,01,03,04,14,16,22,30,,,,,,2.3,1.7,1.5*36
2021/08/26,07:16:18,0.41,$GPGGA,101620.0,0552.815731,S,03512.919775,W,1,08,0.9,59.3,M,0.0,M,,*53,$GPGSA,A,3,01,03,04,07,14,16,22,30,,,,,1.7,0.9,1.4*38
2021/08/26,07:16:19,0.32,$GPGGA,101621.0,0552.815896,S,03512.920127,W,1,08,0.9,59.6,M,0.0,M,,*5E,$GPGSA,A,3,01,03,04,07,14,16,22,30,,,,,1.7,0.9,1.4*38
2021/08/26,07:16:20,0.33,$GPGGA,101622.0,0552.815943,S,03512.920141,W,1,08,0.9,59.7,M,0.0,M,,*55,$GPGSA,A,3,01,03,04,07,14,16,22,30,,,,,1.7,0.9,1.4*38
2021/08/26,07:16:21,0.33,$GPGGA,101623.0,0552.816041,S,03512.919819,W,1,08,0.9,59.2,M,0.0,M,,*57,$GPGSA,A,3,01,03,04,07,14,16,22,30,,,,,1.7,0.9,1.4*38
2021/08/26,07:16:22,0.37,$GPGGA,101624.0,0552.816265,S,03512.919536,W,1,08,0.9,59.2,M,0.0,M,,*54,$GPGSA,A,3,01,03,04,07,14,16,22,30,,,,,1.7,0.9,1.4*38
2021/08/26,07:16:23,0.44,$GPGGA,101625.0,0552.816611,S,03512.919246,W,1,08,0.9,58.8,M,0.0,M,,*59,$GPGSA,A,3,01,03,04,07,14,16,22,30,,,,,1.7,0.9,1.4*38
2021/08/26,07:16:24,0.34,$GPGGA,101626.0,0552.816986,S,03512.918904,W,1,08,1.0,58.5,M,0.0,M,,*52,$GPGSA,A,3,01,03,04,07,14,16,22,30,,,,,1.9,1.0,1.6*3C
2021/08/26,07:16:25,0.38,$GPGGA,101627.0,0552.817397,S,03512.918645,W,1,08,1.0,58.9,M,0.0,M,,*5E,$GPGSA,A,3,01,03,04,07,14,16,22,30,,,,,1.9,1.0,1.6*3C
2021/08/26,07:16:26,0.40,$GPGGA,101628.0,0552.818201,S,03512.918203,W,1,08,0.9,59.6,M,0.0,M,,*50,$GPGSA,A,3,01,03,04,07,14,16,22,30,,,,,1.7,0.9,1.4*38
2021/08/26,07:16:27,0.36,$GPGGA,101629.0,0552.819084,S,03512.917798,W,1,08,0.9,59.7,M,0.0,M,,*56,$GPGSA,A,3,01,03,04,07,14,16,22,30,,,,,1.7,0.9,1.4*38
2021/08/26,07:16:28,0.35,$GPGGA,101630.0,0552.820135,S,03512.917121,W,1,08,0.9,59.9,M,0.0,M,,*55,$GPGSA,A,3,01,03,04,07,14,16,22,30,,,,,1.7,0.9,1.4*38
2021/08/26,07:16:29,0.58,$GPGGA,101631.0,0552.821519,S,03512.916329,W,1,08,0.9,59.6,M,0.0,M,,*5B,$GPGSA,A,3,01,03,04,07,14,16,22,30,,,,,1.7,0.9,1.4*38
2021/08/26,07:16:30,0.41,$GPGGA,101632.0,0552.823151,S,03512.915421,W,1,08,1.1,60.3,M,0.0,M,,*58,$GPGSA,A,3,01,03,04,07,14,16,22,30,,,,,1.9,1.1,1.6*3D
2021/08/26,07:16:31,0.33,$GPGGA,101633.0,0552.825095,S,03512.913937,W,1,08,1.1,62.0,M,0.0,M,,*5B,$GPGSA,A,3,01,03,04,07,14,16,22,30,,,,,1.9,1.1,1.6*3D
2021/08/26,07:16:32,0.40,$GPGGA,101634.0,0552.826921,S,03512.912488,W,1,08,1.1,62.1,M,0.0,M,,*50,$GPGSA,A,3,01,03,04,07,14,16,22,30,,,,,1.9,1.1,1.6*3D
2021/08/26,07:16:33,0.42,$GPGGA,101635.0,0552.830453,S,03512.909880,W,1,08,1.1,62.7,M,0.0,M,,*56,$GPGSA,A,3,01,03,04,07,14,16,22,30,,,,,1.9,1.1,1.6*3D
2021/08/26,07:16:34,0.52,$GPGGA,101636.0,0552.834459,S,03512.906287,W,1,08,1.1,62.3,M,0.0,M,,*5D,$GPGSA,A,3,01,03,04,07,14,16,22,30,,,,,1.9,1.1,1.6*3D
2021/08/26,07:16:35,0.70,$GPGGA,101637.0,0552.838892,S,03512.902372,W,1,08,1.1,60.1,M,0.0,M,,*54,$GPGSA,A,3,01,03,04,07,14,16,22,30,,,,,1.9,1.1,1.6*3D
2021/08/26,07:16:36,0.69,$GPGGA,101638.0,0552.842494,S,03512.899257,W,1,07,1.1,59.0,M,0.0,M,,*5D,$GPGSA,A,3,01,03,07,14,16,22,30,,,,,,1.9,1.1,1.6*39
2021/08/26,07:16:37,0.49,$GPGGA,101639.0,0552.846878,S,03512.895234,W,1,07,1.0,56.5,M,0.0,M,,*54,$GPGSA,A,3,01,03,07,14,16,22,30,,,,,,1.8,1.0,1.5*3A
2021/08/26,07:16:38,0.64,$GPGGA,101640.0,0552.850173,S,03512.892109,W,1,07,1.0,56.2,M,0.0,M,,*52,$GPGSA,A,3,01,03,07,14,16,22,30,,,,,,1.8,1.0,1.5*3A
2021/08/26,07:16:39,0.50,$GPGGA,101641.0,0552.853482,S,03512.889634,W,1,07,1.0,55.6,M,0.0,M,,*5F,$GPGSA,A,3,01,03,07,14,16,22,30,,,,,,1.8,1.0,1.5*3A
2021/08/26,07:16:40,0.98,$GPGGA,101642.0,0552.858094,S,03512.885673,W,1,07,1.1,54.1,M,0.0,M,,*5C,$GPGSA,A,3,01,03,07,14,16,22,30,,,,,,1.9,1.1,1.6*39
2021/08/26,07:16:41,0.53,$GPGGA,101643.0,0552.860961,S,03512.883151,W,1,08,1.0,52.6,M,0.0,M,,*5B,$GPGSA,A,3,01,03,07,14,16,21,22,30,,,,,1.8,1.0,1.5*39
2021/08/26,07:16:42,0.61,$GPGGA,101644.0,0552.863338,S,03512.880919,W,1,08,1.0,50.4,M,0.0,M,,*5E,$GPGSA,A,3,01,03,07,14,16,21,22,30,,,,,1.8,1.0,1.5*39
2021/08/26,07:16:43,0.73,$GPGGA,101645.0,0552.866554,S,03512.878543,W,1,08,1.0,50.0,M,0.0,M,,*56,$GPGSA,A,3,01,03,07,14,16,21,22,30,,,,,1.8,1.0,1.5*39
2021/08/26,07:16:44,0.89,$GPGGA,101646.0,0552.870036,S,03512.876036,W,1,08,1.0,49.1,M,0.0,M,,*53,$GPGSA,A,3,01,03,07,14,16,21,22,30,,,,,1.8,1.0,1.5*39
2021/08/26,07:16:45,1.25,$GPGGA,101647.0,0552.873535,S,03512.873649,W,1,08,1.0,48.8,M,0.0,M,,*54,$GPGSA,A,3,01,03,07,14,16,21,22,30,,,,,1.8,1.0,1.5*39
2021/08/26,07:16:46,1.07,$GPGGA,101648.0,0552.877683,S,03512.870498,W,1,08,1.0,48.3,M,0.0,M,,*57,$GPGSA,A,3,01,03,07,14,16,21,22,30,,,,,1.8,1.0,1.5*39
2021/08/26,07:16:47,1.12,$GPGGA,101649.0,0552.881883,S,03512.867328,W,1,08,1.0,47.5,M,0.0,M,,*52,$GPGSA,A,3,01,03,07,14,16,21,22,30,,,,,1.8,1.0,1.5*39
2021/08/26,07:16:48,1.66,$GPGGA,101650.0,0552.885858,S,03512.864144,W,1,08,1.0,47.9,M,0.0,M,,*5F,$GPGSA,A,3,01,03,07,14,16,21,22,30,,,,,1.8,1.0,1.5*39
2021/08/26,07:16:49,0.89,$GPGGA,101651.0,0552.890240,S,03512.860516,W,1,08,1.0,47.7,M,0.0,M,,*50,$GPGSA,A,3,01,03,07,14,16,21,22,30,,,,,1.8,1.0,1.5*39
2021/08/26,07:16:50,1.85,$GPGGA,101652.0,0552.894660,S,03512.857194,W,1,08,1.0,47.6,M,0.0,M,,*5A,$GPGSA,A,3,01,03,07,14,16,21,22,30,,,,,1.8,1.0,1.5*39
2021/08/26,07:16:51,2.01,$GPGGA,101653.0,0552.898763,S,03512.853938,W,1,08,1.0,48.0,M,0.0,M,,*56,$GPGSA,A,3,01,03,07,14,16,21,22,30,,,,,1.8,1.0,1.5*39
2021/08/26,07:16:52,1.89,$GPGGA,101654.0,0552.902516,S,03512.850680,W,1,08,1.0,48.0,M,0.0,M,,*5C,$GPGSA,A,3,01,03,07,14,16,21,22,30,,,,,1.8,1.0,1.5*39
2021/08/26,07:16:53,2.27,$GPGGA,101655.0,0552.905392,S,03512.848391,W,1,08,1.0,48.5,M,0.0,M,,*59,$GPGSA,A,3,01,03,07,14,16,21,22,30,,,,,1.8,1.0,1.5*39
2021/08/26,07:16:54,2.30,$GPGGA,101656.0,0552.908604,S,03512.845737,W,1,08,1.0,48.7,M,0.0,M,,*5A,$GPGSA,A,3,01,03,07,14,16,21,22,30,,,,,1.8,1.0,1.5*39
2021/08/26,07:16:55,2.28,$GPGGA,101657.0,0552.911349,S,03512.843355,W,1,08,1.0,49.1,M,0.0,M,,*5E,$GPGSA,A,3,01,03,07,14,16,21,22,30,,,,,1.8,1.0,1.5*39
2021/08/26,07:16:56,2.21,$GPGGA,101658.0,0552.914754,S,03512.840659,W,1,08,1.0,48.2,M,0.0,M,,*54,$GPGSA,A,3,01,03,07,14,16,21,22,30,,,,,1.8,1.0,1.5*39
2021/08/26,07:16:57,2.37,$GPGGA,101659.0,0552.918121,S,03512.838268,W,1,08,1.0,48.2,M,0.0,M,,*54,$GPGSA,A,3,01,03,07,14,16,21,22,30,,,,,1.8,1.0,1.5*39
2021/08/26,07:16:58,1.41,$GPGGA,101700.0,0552.921862,S,03512.835057,W,1,08,1.0,48.0,M,0.0,M,,*5C,$GPGSA,A,3,01,03,07,14,16,21,22,30,,,,,1.8,1.0,1.5*39
2021/08/26,07:16:59,1.45,$GPGGA,101701.0,0552.925050,S,03512.832621,W,1,08,1.0,48.2,M,0.0,M,,*52,$GPGSA,A,3,01,03,07,14,16,21,22,30,,,,,1.8,1.0,1.5*39
2021/08/26,07:17:00,2.12,$GPGGA,101702.0,0552.928476,S,03512.830001,W,1,08,1.0,48.7,M,0.0,M,,*5F,$GPGSA,A,3,01,03,07,14,16,21,22,30,,,,,1.8,1.0,1.5*39
2021/08/26,07:17:01,1.46,$GPGGA,101703.0,0552.931908,S,03512.827286,W,1,08,1.0,48.8,M,0.0,M,,*56,$GPGSA,A,3,01,03,07,14,16,21,22,30,,,,,1.8,1.0,1.5*39
2021/08/26,07:17:02,1.79,$GPGGA,101704.0,0552.935711,S,03512.824493,W,1,08,1.0,49.1,M,0.0,M,,*5A,$GPGSA,A,3,01,03,07,14,16,21,22,30,,,,,1.8,1.0,1.5*39
2021/08/26,07:17:03,1.64,$GPGGA,101705.0,0552.939753,S,03512.821222,W,1,08,1.0,49.1,M,0.0,M,,*58,$GPGSA,A,3,01,03,07,14,16,21,22,30,,,,,1.8,1.0,1.5*39
2021/08/26,07:17:04,1.61,$GPGGA,101706.0,0552.943352,S,03512.818315,W,1,08,1.0,49.1,M,0.0,M,,*5C,$GPGSA,A,3,01,03,07,14,16,21,22,30,,,,,1.8,1.0,1.5*39
2021/08/26,07:17:05,1.22,$GPGGA,101707.0,0552.947056,S,03512.815547,W,1,08,1.0,49.6,M,0.0,M,,*55,$GPGSA,A,3,01,03,07,14,16,21,22,30,,,,,1.8,1.0,1.5*39
2021/08/26,07:17:06,0.89,$GPGGA,101708.0,0552.950212,S,03512.812942,W,1,08,1.0,49.0,M,0.0,M,,*56,$GPGSA,A,3,01,03,07,14,16,21,22,30,,,,,1.8,1.0,1.5*39
2021/08/26,07:17:07,0.97,$GPGGA,101709.0,0552.952985,S,03512.810572,W,1,08,1.0,49.1,M,0.0,M,,*5C,$GPGSA,A,3,01,03,07,14,16,21,22,30,,,,,1.8,1.0,1.5*39
2021/08/26,07:17:08,0.94,$GPGGA,101710.0,0552.955711,S,03512.808418,W,1,08,1.0,49.8,M,0.0,M,,*5D,$GPGSA,A,3,01,03,07,14,16,21,22,30,,,,,1.8,1.0,1.5*39
2021/08/26,07:17:09,1.29,$GPGGA,101711.0,0552.958564,S,03512.806275,W,1,08,1.0,50.4,M,0.0,M,,*56,$GPGSA,A,3,01,03,07,14,16,21,22,30,,,,,1.8,1.0,1.5*39
2021/08/26,07:17:10,1.13,$GPGGA,101712.0,0552.962374,S,03512.802997,W,1,08,1.0,48.5,M,0.0,M,,*50,$GPGSA,A,3,01,03,07,14,16,21,22,30,,,,,1.8,1.0,1.5*39
2021/08/26,07:17:11,1.52,$GPGGA,101713.0,0552.965725,S,03512.800429,W,1,08,1.0,48.0,M,0.0,M,,*59,$GPGSA,A,3,01,03,07,14,16,21,22,30,,,,,1.8,1.0,1.5*39
2021/08/26,07:17:12,1.25,$GPGGA,101714.0,0552.968825,S,03512.797549,W,1,08,1.0,48.0,M,0.0,M,,*5A,$GPGSA,A,3,01,03,07,14,16,21,22,30,,,,,1.8,1.0,1.5*39
2021/08/26,07:17:13,1.48,$GPGGA,101715.0,0552.971768,S,03512.795269,W,1,08,1.0,48.1,M,0.0,M,,*53,$GPGSA,A,3,01,03,07,14,16,21,22,30,,,,,1.8,1.0,1.5*39
2021/08/26,07:17:14,1.18,$GPGGA,101716.0,0552.974717,S,03512.793144,W,1,08,1.0,49.1,M,0.0,M,,*56,$GPGSA,A,3,01,03,07,14,16,21,22,30,,,,,1.8,1.0,1.5*39
2021/08/26,07:17:15,1.34,$GPGGA,101717.0,0552.978239,S,03512.790525,W,1,08,1.0,49.8,M,0.0,M,,*5B,$GPGSA,A,3,01,03,07,14,16,21,22,30,,,,,1.8,1.0,1.5*39
2021/08/26,07:17:16,1.49,$GPGGA,101718.0,0552.981402,S,03512.788278,W,1,08,1.0,50.6,M,0.0,M,,*5C,$GPGSA,A,3,01,03,07,14,16,21,22,30,,,,,1.9,1.0,1.6*3B
2021/08/26,07:17:17,1.58,$GPGGA,101719.0,0552.984552,S,03512.785728,W,1,08,1.0,50.6,M,0.0,M,,*51,$GPGSA,A,3,01,03,07,14,16,21,22,30,,,,,1.9,1.0,1.6*3B
2021/08/26,07:17:18,1.46,$GPGGA,101720.0,0552.989043,S,03512.781977,W,1,08,1.0,50.6,M,0.0,M,,*53,$GPGSA,A,3,01,03,07,14,16,21,22,30,,,,,1.9,1.0,1.6*3B
2021/08/26,07:17:19,1.07,$GPGGA,101721.0,0552.992935,S,03512.778186,W,1,08,1.0,51.3,M,0.0,M,,*54,$GPGSA,A,3,01,03,07,14,16,21,22,30,,,,,1.8,1.0,1.5*39
2021/08/26,07:17:20,1.46,$GPGGA,101722.0,0552.997240,S,03512.774393,W,1,08,1.0,51.1,M,0.0,M,,*53,$GPGSA,A,3,01,03,07,14,16,21,22,30,,,,,1.9,1.0,1.6*3B
2021/08/26,07:17:21,1.79,$GPGGA,101723.0,0553.001164,S,03512.771410,W,1,07,1.0,51.2,M,0.0,M,,*55,$GPGSA,A,3,01,03,07,16,21,22,30,,,,,,1.9,1.0,1.6*3E
2021/08/26,07:17:22,1.97,$GPGGA,101724.0,0553.005096,S,03512.768246,W,1,07,1.0,51.8,M,0.0,M,,*5D,$GPGSA,A,3,01,03,07,16,21,22,30,,,,,,1.9,1.0,1.6*3E
2021/08/26,07:17:23,1.80,$GPGGA,101725.0,0553.009011,S,03512.765268,W,1,07,1.0,52.0,M,0.0,M,,*55,$GPGSA,A,3,01,03,07,16,21,22,30,,,,,,1.9,1.0,1.6*3E
2021/08/26,07:17:24,1.59,$GPGGA,101726.0,0553.012740,S,03512.762063,W,1,08,0.9,51.8,M,0.0,M,,*5D,$GPGSA,A,3,01,03,07,09,16,21,22,30,,,,,1.8,0.9,1.6*3E
2021/08/26,07:17:25,1.72,$GPGGA,101727.0,0553.016292,S,03512.759146,W,1,08,0.9,51.9,M,0.0,M,,*5D,$GPGSA,A,3,01,03,07,09,16,21,22,30,,,,,1.8,0.9,1.6*3E
2021/08/26,07:17:26,1.57,$GPGGA,101728.0,0553.019960,S,03512.756470,W,1,08,0.9,52.4,M,0.0,M,,*5A,$GPGSA,A,3,01,03,07,09,16,21,22,30,,,,,1.8,0.9,1.6*3E
2021/08/26,07:17:27,1.34,$GPGGA,101729.0,0553.023412,S,03512.753771,W,1,08,0.9,52.6,M,0.0,M,,*5F,$GPGSA,A,3,01,03,07,09,16,21,22,30,,,,,1.8,0.9,1.6*3E
2021/08/26,07:17:28,1.21,$GPGGA,101730.0,0553.026822,S,03512.750970,W,1,08,1.0,52.8,M,0.0,M,,*57,$GPGSA,A,3,01,03,07,09,16,21,22,30,,,,,1.8,1.0,1.6*36
2021/08/26,07:17:29,1.19,$GPGGA,101731.0,0553.029975,S,03512.748352,W,1,08,0.9,52.6,M,0.0,M,,*5F,$GPGSA,A,3,01,03,07,09,16,21,22,30,,,,,1.8,0.9,1.6*3E
2021/08/26,07:17:30,1.36,$GPGGA,101732.0,0553.032627,S,03512.746316,W,1,09,0.9,52.1,M,0.0,M,,*56,$GPGSA,A,3,01,03,07,09,14,16,21,22,30,,,,1.7,0.9,1.4*36
2021/08/26,07:17:31,1.48,$GPGGA,101733.0,0553.035135,S,03512.744335,W,1,09,0.9,52.8,M,0.0,M,,*5E,$GPGSA,A,3,01,03,07,09,14,16,21,22,30,,,,1.7,0.9,1.4*36
2021/08/26,07:17:32,1.37,$GPGGA,101734.0,0553.036717,S,03512.743115,W,1,09,0.9,53.3,M,0.0,M,,*51,$GPGSA,A,3,01,03,07,09,14,16,21,22,30,,,,1.7,0.9,1.4*36
2021/08/26,07:17:33,1.37,$GPGGA,101735.0,0553.038059,S,03512.741968,W,1,09,1.0,53.5,M,0.0,M,,*5D,$GPGSA,A,3,01,03,07,09,14,16,21,22,30,,,,1.8,1.0,1.6*33
2021/08/26,07:17:34,1.50,$GPGGA,101736.0,0553.039310,S,03512.740823,W,1,09,1.0,53.1,M,0.0,M,,*5A,$GPGSA,A,3,01,03,07,09,14,16,21,22,30,,,,1.8,1.0,1.6*33
2021/08/26,07:17:35,1.21,$GPGGA,101737.0,0553.040476,S,03512.739786,W,1,09,1.0,52.7,M,0.0,M,,*5B,$GPGSA,A,3,01,03,07,09,14,16,21,22,30,,,,1.8,1.0,1.6*33
2021/08/26,07:17:36,0.96,$GPGGA,101738.0,0553.041381,S,03512.739091,W,1,09,1.0,52.5,M,0.0,M,,*59,$GPGSA,A,3,01,03,07,09,14,16,21,22,30,,,,1.8,1.0,1.6*33
2021/08/26,07:17:37,0.98,$GPGGA,101739.0,0553.042402,S,03512.738504,W,1,09,1.0,51.9,M,0.0,M,,*50,$GPGSA,A,3,01,03,07,09,14,16,21,22,30,,,,1.8,1.0,1.6*33
2021/08/26,07:17:38,0.98,$GPGGA,101740.0,0553.043425,S,03512.737821,W,1,09,1.0,51.7,M,0.0,M,,*51,$GPGSA,A,3,01,03,07,09,14,16,21,22,30,,,,1.8,1.0,1.6*33
2021/08/26,07:17:39,0.99,$GPGGA,101741.0,0553.044636,S,03512.737003,W,1,08,1.0,51.6,M,0.0,M,,*5F,$GPGSA,A,3,01,03,07,09,14,16,22,30,,,,,1.8,1.0,1.6*30
2021/08/26,07:17:40,1.00,$GPGGA,101742.0,0553.046152,S,03512.735730,W,1,08,1.0,51.5,M,0.0,M,,*5D,$GPGSA,A,3,01,03,07,09,14,16,22,30,,,,,1.8,1.0,1.6*30
2021/08/26,07:17:41,1.02,$GPGGA,101743.0,0553.047470,S,03512.734637,W,1,08,1.0,50.9,M,0.0,M,,*52,$GPGSA,A,3,01,03,07,09,14,16,22,30,,,,,1.8,1.0,1.6*30
2021/08/26,07:17:42,1.12,$GPGGA,101744.0,0553.048825,S,03512.733286,W,1,08,1.0,50.6,M,0.0,M,,*50,$GPGSA,A,3,01,03,07,09,14,16,22,30,,,,,1.8,1.0,1.6*30
2021/08/26,07:17:43,1.24,$GPGGA,101745.0,0553.051608,S,03512.730359,W,1,08,1.0,50.0,M,0.0,M,,*5E,$GPGSA,A,3,01,03,07,09,14,16,22,30,,,,,1.8,1.0,1.6*30
2021/08/26,07:17:44,0.87,$GPGGA,101746.0,0553.054593,S,03512.727926,W,1,08,1.0,49.5,M,0.0,M,,*50,$GPGSA,A,3,01,03,07,09,14,16,22,30,,,,,1.8,1.0,1.6*30
2021/08/26,07:17:45,1.22,$GPGGA,101747.0,0553.057633,S,03512.725120,W,1,08,1.0,49.8,M,0.0,M,,*5A,$GPGSA,A,3,01,03,07,09,14,16,22,30,,,,,1.8,1.0,1.6*30
2021/08/26,07:17:46,1.02,$GPGGA,101748.0,0553.061235,S,03512.722501,W,1,09,0.9,50.0,M,0.0,M,,*5B,$GPGSA,A,3,01,03,07,09,14,16,21,22,30,,,,1.7,0.9,1.4*36
2021/08/26,07:17:47,0.66,$GPGGA,101749.0,0553.064623,S,03512.719355,W,1,09,1.0,49.7,M,0.0,M,,*54,$GPGSA,A,3,01,03,07,09,14,16,21,22,30,,,,1.9,1.0,1.6*32
2021/08/26,07:17:48,0.88,$GPGGA,101750.0,0553.068383,S,03512.716111,W,1,09,1.0,49.7,M,0.0,M,,*52,$GPGSA,A,3,01,03,07,09,14,16,21,22,30,,,,1.8,1.0,1.6*33
2021/08/26,07:17:49,0.87,$GPGGA,101751.0,0553.072160,S,03512.712785,W,1,09,1.0,49.6,M,0.0,M,,*59,$GPGSA,A,3,01,03,07,09,14,16,21,22,30,,,,1.8,1.0,1.6*33
2021/08/26,07:17:50,0.79,$GPGGA,101752.0,0553.076317,S,03512.709493,W,1,09,1.0,49.7,M,0.0,M,,*53,$GPGSA,A,3,01,03,07,09,14,16,21,22,30,,,,1.8,1.0,1.6*33
2021/08/26,07:17:51,0.88,$GPGGA,101753.0,0553.080505,S,03512.706125,W,1,09,1.0,49.6,M,0.0,M,,*58,$GPGSA,A,3,01,03,07,09,14,16,21,22,30,,,,1.8,1.0,1.6*33
2021/08/26,07:17:52,0.74,$GPGGA,101754.0,0553.084767,S,03512.702693,W,1,08,1.0,49.5,M,0.0,M,,*51,$GPGSA,A,3,01,03,07,09,14,21,22,30,,,,,1.8,1.0,1.6*34
2021/08/26,07:17:53,0.76,$GPGGA,101755.0,0553.089150,S,03512.699067,W,1,07,1.0,48.9,M,0.0,M,,*53,$GPGSA,A,3,01,03,07,09,14,22,30,,,,,,1.8,1.0,1.6*37
2021/08/26,07:17:54,0.79,$GPGGA,101756.0,0553.094097,S,03512.695106,W,1,07,1.0,48.9,M,0.0,M,,*5C,$GPGSA,A,3,01,03,07,09,14,22,30,,,,,,1.8,1.0,1.6*37
2021/08/26,07:17:55,0.84,$GPGGA,101757.0,0553.098667,S,03512.691260,W,1,07,1.0,48.4,M,0.0,M,,*52,$GPGSA,A,3,01,03,07,09,14,22,30,,,,,,1.8,1.0,1.6*37
2021/08/26,07:17:56,1.06,$GPGGA,101758.0,0553.103669,S,03512.687122,W,1,07,1.0,48.4,M,0.0,M,,*52,$GPGSA,A,3,01,03,07,09,14,22,30,,,,,,1.8,1.0,1.6*37
2021/08/26,07:17:57,0.44,$GPGGA,101759.0,0553.108631,S,03512.683160,W,1,07,1.0,48.1,M,0.0,M,,*52,$GPGSA,A,3,01,03,07,09,14,22,30,,,,,,1.8,1.0,1.6*37
2021/08/26,07:17:58,0.81,$GPGGA,101800.0,0553.113604,S,03512.679249,W,1,06,1.0,47.9,M,0.0,M,,*56,$GPGSA,A,3,03,07,09,14,22,30,,,,,,,1.8,1.0,1.6*36
2021/08/26,07:17:59,1.02,$GPGGA,101801.0,0553.118611,S,03512.675206,W,1,07,1.0,48.1,M,0.0,M,,*59,$GPGSA,A,3,01,03,07,09,14,22,30,,,,,,1.8,1.0,1.6*37
2021/08/26,07:18:00,0.96,$GPGGA,101802.0,0553.123270,S,03512.671563,W,1,07,1.0,48.1,M,0.0,M,,*51,$GPGSA,A,3,01,03,07,09,14,22,30,,,,,,1.8,1.0,1.6*37
2021/08/26,07:18:01,1.05,$GPGGA,101803.0,0553.127059,S,03512.668695,W,1,07,1.0,49.3,M,0.0,M,,*5C,$GPGSA,A,3,01,03,07,09,14,22,30,,,,,,1.8,1.0,1.6*37
2021/08/26,07:18:02,0.90,$GPGGA,101804.0,0553.131030,S,03512.665724,W,1,07,1.0,49.4,M,0.0,M,,*52,$GPGSA,A,3,01,03,07,09,14,22,30,,,,,,1.8,1.0,1.6*37
2021/08/26,07:18:03,0.97,$GPGGA,101805.0,0553.134806,S,03512.663044,W,1,08,1.0,49.6,M,0.0,M,,*51,$GPGSA,A,3,01,03,07,09,14,16,22,30,,,,,1.8,1.0,1.6*30
2021/08/26,07:18:04,0.65,$GPGGA,101806.0,0553.138554,S,03512.660013,W,1,08,1.0,49.3,M,0.0,M,,*50,$GPGSA,A,3,01,03,07,09,14,16,22,30,,,,,1.8,1.0,1.6*30
2021/08/26,07:18:05,0.90,$GPGGA,101807.0,0553.142131,S,03512.657104,W,1,08,1.0,49.0,M,0.0,M,,*5B,$GPGSA,A,3,01,03,07,09,14,16,22,30,,,,,1.8,1.0,1.6*30
2021/08/26,07:18:06,0.39,$GPGGA,101808.0,0553.145464,S,03512.654370,W,1,08,1.0,48.9,M,0.0,M,,*5C,$GPGSA,A,3,01,03,07,09,14,16,22,30,,,,,1.8,1.0,1.6*30
2021/08/26,07:18:07,0.51,$GPGGA,101809.0,0553.148592,S,03512.651776,W,1,08,1.0,48.6,M,0.0,M,,*50,$GPGSA,A,3,01,03,07,09,14,16,22,30,,,,,1.8,1.0,1.6*30
2021/08/26,07:18:08,0.57,$GPGGA,101810.0,0553.151548,S,03512.649238,W,1,08,1.0,48.3,M,0.0,M,,*54,$GPGSA,A,3,01,03,07,09,14,16,22,30,,,,,1.8,1.0,1.6*30
2021/08/26,07:18:09,0.60,$GPGGA,101811.0,0553.154530,S,03512.646917,W,1,08,1.0,47.9,M,0.0,M,,*53,$GPGSA,A,3,01,03,07,09,14,16,22,30,,,,,1.8,1.0,1.6*30
2021/08/26,07:18:10,0.53,$GPGGA,101812.0,0553.157343,S,03512.644699,W,1,08,1.0,47.7,M,0.0,M,,*54,$GPGSA,A,3,01,03,07,09,14,16,22,30,,,,,1.8,1.0,1.6*30
2021/08/26,07:18:11,0.68,$GPGGA,101813.0,0553.159917,S,03512.642697,W,1,07,1.0,47.6,M,0.0,M,,*56,$GPGSA,A,3,01,03,07,09,14,22,30,,,,,,2.2,1.0,1.9*31
2021/08/26,07:18:12,0.63,$GPGGA,101814.0,0553.162163,S,03512.640523,W,1,07,1.0,47.8,M,0.0,M,,*52,$GPGSA,A,3,01,03,07,09,14,22,30,,,,,,1.8,1.0,1.6*37
2021/08/26,07:18:13,0.89,$GPGGA,101815.0,0553.164255,S,03512.638771,W,1,07,1.0,47.7,M,0.0,M,,*56,$GPGSA,A,3,01,03,07,09,14,22,30,,,,,,1.8,1.0,1.6*37
2021/08/26,07:18:14,0.77,$GPGGA,101816.0,0553.166003,S,03512.637255,W,1,07,1.0,47.9,M,0.0,M,,*54,$GPGSA,A,3,01,03,07,09,14,22,30,,,,,,1.8,1.0,1.6*37
2021/08/26,07:18:15,0.83,$GPGGA,101817.0,0553.167177,S,03512.636599,W,1,07,1.0,48.2,M,0.0,M,,*54,$GPGSA,A,3,01,03,07,09,14,22,30,,,,,,1.8,1.0,1.6*37
2021/08/26,07:18:16,0.63,$GPGGA,101818.0,0553.168464,S,03512.635549,W,1,07,1.0,48.8,M,0.0,M,,*57,$GPGSA,A,3,01,03,07,09,14,22,30,,,,,,1.8,1.0,1.6*37
2021/08/26,07:18:17,0.60,$GPGGA,101819.0,0553.169041,S,03512.635198,W,1,07,1.0,48.9,M,0.0,M,,*5D,$GPGSA,A,3,01,03,07,09,14,22,30,,,,,,1.9,1.0,1.6*36
2021/08/26,07:18:18,0.57,$GPGGA,101820.0,0553.169230,S,03512.634867,W,1,07,1.0,48.8,M,0.0,M,,*5A,$GPGSA,A,3,01,03,07,09,14,22,30,,,,,,1.9,1.0,1.6*36
2021/08/26,07:18:19,0.68,$GPGGA,101821.0,0553.169082,S,03512.634917,W,1,07,1.0,48.3,M,0.0,M,,*5D,$GPGSA,A,3,01,03,07,09,14,22,30,,,,,,1.9,1.0,1.6*36
2021/08/26,07:18:20,0.61,$GPGGA,101822.0,0553.169073,S,03512.635038,W,1,07,1.0,48.2,M,0.0,M,,*54,$GPGSA,A,3,01,03,07,09,14,22,30,,,,,,1.9,1.0,1.6*36
2021/08/26,07:18:21,0.63,$GPGGA,101823.0,0553.169113,S,03512.635131,W,1,08,1.0,48.7,M,0.0,M,,*50,$GPGSA,A,3,01,03,07,09,14,16,22,30,,,,,1.9,1.0,1.6*31
2021/08/26,07:18:22,0.67,$GPGGA,101824.0,0553.169149,S,03512.635111,W,1,08,1.0,48.8,M,0.0,M,,*55,$GPGSA,A,3,01,03,07,09,14,16,22,30,,,,,1.9,1.0,1.6*31
2021/08/26,07:18:23,0.56,$GPGGA,101825.0,0553.169451,S,03512.634840,W,1,07,1.0,48.3,M,0.0,M,,*50,$GPGSA,A,3,03,07,09,14,16,22,30,,,,,,1.9,1.0,1.6*30
2021/08/26,07:18:24,0.49,$GPGGA,101826.0,0553.170004,S,03512.634563,W,1,08,1.0,48.5,M,0.0,M,,*5A,$GPGSA,A,3,01,03,07,09,14,16,22,30,,,,,1.8,1.0,1.6*30
2021/08/26,07:18:25,0.67,$GPGGA,101827.0,0553.170535,S,03512.634161,W,1,08,1.0,48.3,M,0.0,M,,*5C,$GPGSA,A,3,01,03,07,09,14,16,22,30,,,,,1.8,1.0,1.6*30
2021/08/26,07:18:26,0.55,$GPGGA,101828.0,0553.171152,S,03512.633712,W,1,08,1.0,48.5,M,0.0,M,,*54,$GPGSA,A,3,01,03,07,09,14,16,22,30,,,,,1.8,1.0,1.6*30
2021/08/26,07:18:27,0.59,$GPGGA,101829.0,0553.172007,S,03512.633081,W,1,08,1.0,48.6,M,0.0,M,,*59,$GPGSA,A,3,01,03,07,09,14,16,22,30,,,,,1.8,1.0,1.6*30
2021/08/26,07:18:28,0.56,$GPGGA,101830.0,0553.173390,S,03512.631982,W,1,08,1.0,48.6,M,0.0,M,,*55,$GPGSA,A,3,01,03,07,09,14,16,22,30,,,,,1.9,1.0,1.6*31
2021/08/26,07:18:29,0.58,$GPGGA,101831.0,0553.174786,S,03512.630901,W,1,08,1.0,48.7,M,0.0,M,,*5B,$GPGSA,A,3,01,03,07,09,14,16,22,30,,,,,1.9,1.0,1.6*31
2021/08/26,07:18:30,0.77,$GPGGA,101832.0,0553.178058,S,03512.628131,W,1,08,1.0,48.4,M,0.0,M,,*51,$GPGSA,A,3,01,03,07,09,14,16,22,30,,,,,1.9,1.0,1.6*31
2021/08/26,07:18:31,0.96,$GPGGA,101833.0,0553.180557,S,03512.626116,W,1,08,1.0,48.0,M,0.0,M,,*52,$GPGSA,A,3,01,03,07,09,14,16,22,30,,,,,1.9,1.0,1.6*31
2021/08/26,07:18:32,0.83,$GPGGA,101834.0,0553.183362,S,03512.623822,W,1,08,1.0,47.9,M,0.0,M,,*5B,$GPGSA,A,3,01,03,07,09,14,16,22,30,,,,,1.9,1.0,1.6*31
2021/08/26,07:18:33,0.98,$GPGGA,101835.0,0553.186487,S,03512.621434,W,1,08,1.0,47.8,M,0.0,M,,*5B,$GPGSA,A,3,01,03,07,09,14,16,22,30,,,,,1.9,1.0,1.6*31
2021/08/26,07:18:34,0.97,$GPGGA,101836.0,0553.190020,S,03512.618800,W,1,07,1.0,48.0,M,0.0,M,,*5F,$GPGSA,A,3,03,07,09,14,16,22,30,,,,,,1.9,1.0,1.6*30
2021/08/26,07:18:35,1.01,$GPGGA,101837.0,0553.193483,S,03512.616184,W,1,07,1.0,48.1,M,0.0,M,,*5A,$GPGSA,A,3,03,07,09,14,16,22,30,,,,,,1.8,1.0,1.6*31
2021/08/26,07:18:36,1.73,$GPGGA,101838.0,0553.197303,S,03512.613373,W,1,06,1.0,48.3,M,0.0,M,,*52,$GPGSA,A,3,03,07,09,14,22,30,,,,,,,1.8,1.0,1.6*36
2021/08/26,07:18:37,1.55,$GPGGA,101839.0,0553.200938,S,03512.610878,W,1,07,1.0,48.7,M,0.0,M,,*5A,$GPGSA,A,3,03,07,09,14,16,22,30,,,,,,1.8,1.0,1.6*31
2021/08/26,07:18:38,1.88,$GPGGA,101840.0,0553.205166,S,03512.607319,W,1,07,1.0,48.6,M,0.0,M,,*59,$GPGSA,A,3,03,07,09,14,16,22,30,,,,,,1.8,1.0,1.6*31
2021/08/26,07:18:39,1.03,$GPGGA,101841.0,0553.209443,S,03512.604047,W,1,08,1.0,48.8,M,0.0,M,,*5C,$GPGSA,A,3,01,03,07,09,14,16,22,30,,,,,1.8,1.0,1.6*30
2021/08/26,07:18:40,1.07,$GPGGA,101842.0,0553.213870,S,03512.600691,W,1,08,1.0,48.6,M,0.0,M,,*5F,$GPGSA,A,3,01,03,07,09,14,16,22,30,,,,,1.8,1.0,1.6*30
2021/08/26,07:18:41,0.96,$GPGGA,101843.0,0553.218480,S,03512.597357,W,1,08,1.0,48.8,M,0.0,M,,*5A,$GPGSA,A,3,01,03,07,09,14,16,22,30,,,,,1.8,1.0,1.6*30
2021/08/26,07:18:42,1.09,$GPGGA,101844.0,0553.223077,S,03512.593481,W,1,08,0.9,49.0,M,0.0,M,,*50,$GPGSA,A,3,01,03,07,09,14,16,22,30,,,,,1.8,0.9,1.6*38
2021/08/26,07:18:43,1.14,$GPGGA,101845.0,0553.226330,S,03512.590695,W,1,08,0.9,49.7,M,0.0,M,,*57,$GPGSA,A,3,01,03,07,09,14,16,22,30,,,,,1.8,0.9,1.6*38
2021/08/26,07:18:44,1.01,$GPGGA,101846.0,0553.229550,S,03512.587207,W,1,08,0.9,50.5,M,0.0,M,,*58,$GPGSA,A,3,01,03,07,09,14,16,22,30,,,,,1.8,0.9,1.6*38
2021/08/26,07:18:45,1.19,$GPGGA,101847.0,0553.233918,S,03512.582535,W,1,09,0.9,50.3,M,0.0,M,,*56,$GPGSA,A,3,01,03,04,07,09,14,16,22,30,,,,1.8,0.9,1.6*3C
2021/08/26,07:18:46,1.23,$GPGGA,101848.0,0553.239112,S,03512.578732,W,1,09,0.9,49.8,M,0.0,M,,*52,$GPGSA,A,3,01,03,04,07,09,14,16,22,30,,,,1.8,0.9,1.6*3C
2021/08/26,07:18:47,1.17,$GPGGA,101849.0,0553.244677,S,03512.574632,W,1,09,1.0,50.0,M,0.0,M,,*58,$GPGSA,A,3,01,03,04,07,09,14,16,22,30,,,,1.9,1.0,1.6*35
2021/08/26,07:18:48,1.29,$GPGGA,101850.0,0553.249527,S,03512.570891,W,1,09,0.9,50.4,M,0.0,M,,*54,$GPGSA,A,3,01,03,04,07,09,14,16,22,30,,,,1.8,0.9,1.6*3C
2021/08/26,07:18:49,1.25,$GPGGA,101851.0,0553.254441,S,03512.567159,W,1,09,0.9,50.5,M,0.0,M,,*52,$GPGSA,A,3,01,03,04,07,09,14,16,22,30,,,,1.8,0.9,1.6*3C
2021/08/26,07:18:50,1.39,$GPGGA,101852.0,0553.259528,S,03512.563210,W,1,09,1.1,49.9,M,0.0,M,,*55,$GPGSA,A,3,01,03,04,07,09,14,16,22,30,,,,2.1,1.1,1.8*31
2021/08/26,07:18:51,1.08,$GPGGA,101853.0,0553.264484,S,03512.559444,W,1,09,1.1,50.0,M,0.0,M,,*52,$GPGSA,A,3,01,03,04,07,09,14,16,22,30,,,,2.1,1.1,1.8*31
2021/08/26,07:18:52,0.77,$GPGGA,101854.0,0553.269672,S,03512.555411,W,1,08,1.1,50.1,M,0.0,M,,*5F,$GPGSA,A,3,01,03,04,07,09,14,22,30,,,,,2.1,1.1,1.8*36
2021/08/26,07:18:53,1.26,$GPGGA,101855.0,0553.274764,S,03512.551338,W,1,08,1.0,49.9,M,0.0,M,,*5D,$GPGSA,A,3,01,03,04,07,09,14,22,30,,,,,1.8,1.0,1.6*33
2021/08/26,07:18:54,1.24,$GPGGA,101856.0,0553.279823,S,03512.547129,W,1,06,0.9,49.8,M,0.0,M,,*5D,$GPGSA,A,3,03,07,09,14,22,30,,,,,,,1.8,0.9,1.6*3E
2021/08/26,07:18:55,1.51,$GPGGA,101857.0,0553.285038,S,03512.542877,W,1,06,0.9,50.0,M,0.0,M,,*5A,$GPGSA,A,3,03,07,09,14,22,30,,,,,,,1.8,0.9,1.6*3E
2021/08/26,07:18:56,1.50,$GPGGA,101858.0,0553.290769,S,03512.538512,W,1,07,1.5,50.3,M,0.0,M,,*5E,$GPGSA,A,3,01,03,07,09,14,22,30,,,,,,2.6,1.5,2.1*3B
2021/08/26,07:18:57,1.31,$GPGGA,101859.0,0553.296129,S,03512.534112,W,1,07,1.1,50.4,M,0.0,M,,*50,$GPGSA,A,3,01,03,07,09,14,22,30,,,,,,2.1,1.1,1.8*32
2021/08/26,07:18:58,1.05,$GPGGA,101900.0,0553.301805,S,03512.529652,W,1,07,1.1,50.3,M,0.0,M,,*5D,$GPGSA,A,3,01,03,07,09,14,22,30,,,,,,2.1,1.1,1.8*32
2021/08/26,07:18:59,0.44,$GPGGA,101901.0,0553.307054,S,03512.525391,W,1,07,1.5,50.1,M,0.0,M,,*56,$GPGSA,A,3,01,03,07,09,14,22,30,,,,,,2.6,1.5,2.1*3B
2021/08/26,07:19:00,0.40,$GPGGA,101902.0,0553.312626,S,03512.521078,W,1,07,0.9,50.1,M,0.0,M,,*5F,$GPGSA,A,3,01,03,07,09,14,22,30,,,,,,1.8,0.9,1.6*3F
2021/08/26,07:19:01,0.48,$GPGGA,101903.0,0553.318191,S,03512.516527,W,1,07,0.9,50.2,M,0.0,M,,*57,$GPGSA,A,3,01,03,07,09,14,22,30,,,,,,1.8,0.9,1.6*3F
2021/08/26,07:19:02,0.68,$GPGGA,101904.0,0553.323964,S,03512.512085,W,1,07,1.5,50.8,M,0.0,M,,*54,$GPGSA,A,3,01,03,07,09,14,22,30,,,,,,2.6,1.5,2.1*3B
2021/08/26,07:19:03,0.74,$GPGGA,101905.0,0553.329799,S,03512.507689,W,1,07,1.5,51.3,M,0.0,M,,*57,$GPGSA,A,3,01,03,07,09,14,22,30,,,,,,2.6,1.5,2.1*3B
2021/08/26,07:19:04,0.74,$GPGGA,101906.0,0553.335400,S,03512.503296,W,1,07,1.5,51.4,M,0.0,M,,*53,$GPGSA,A,3,01,03,07,09,14,22,30,,,,,,2.6,1.5,2.1*3B
2021/08/26,07:19:05,0.45,$GPGGA,101907.0,0553.341462,S,03512.498969,W,1,07,1.5,51.1,M,0.0,M,,*58,$GPGSA,A,3,01,03,07,09,14,22,30,,,,,,2.6,1.5,2.1*3B
2021/08/26,07:19:06,0.37,$GPGGA,101908.0,0553.346844,S,03512.493932,W,1,07,1.5,50.9,M,0.0,M,,*54,$GPGSA,A,3,01,03,07,09,14,22,30,,,,,,2.6,1.5,2.1*3B
2021/08/26,07:19:07,0.36,$GPGGA,101909.0,0553.352969,S,03512.489115,W,1,07,1.5,49.8,M,0.0,M,,*51,$GPGSA,A,3,01,03,07,09,14,22,30,,,,,,2.6,1.5,2.1*3B
2021/08/26,07:19:08,0.29,$GPGGA,101910.0,0553.359031,S,03512.484454,W,1,07,1.0,49.8,M,0.0,M,,*5E,$GPGSA,A,3,01,03,07,09,14,22,30,,,,,,1.9,1.0,1.6*36
2021/08/26,07:19:09,0.31,$GPGGA,101911.0,0553.365097,S,03512.479752,W,1,07,0.9,50.2,M,0.0,M,,*51,$GPGSA,A,3,01,03,07,09,14,22,30,,,,,,1.8,0.9,1.6*3F
2021/08/26,07:19:10,0.36,$GPGGA,101912.0,0553.371276,S,03512.475155,W,1,07,1.1,50.5,M,0.0,M,,*59,$GPGSA,A,3,01,03,07,09,14,22,30,,,,,,2.2,1.1,1.8*31
2021/08/26,07:19:11,0.49,$GPGGA,101913.0,0553.377175,S,03512.470786,W,1,07,1.5,50.5,M,0.0,M,,*57,$GPGSA,A,3,01,03,07,09,14,22,30,,,,,,2.6,1.5,2.1*3B
2021/08/26,07:19:12,0.49,$GPGGA,101914.0,0553.382814,S,03512.466346,W,1,07,1.1,50.8,M,0.0,M,,*52,$GPGSA,A,3,01,03,07,09,14,22,30,,,,,,2.2,1.1,1.8*31
2021/08/26,07:19:13,0.59,$GPGGA,101915.0,0553.388303,S,03512.462008,W,1,07,1.5,50.9,M,0.0,M,,*5C,$GPGSA,A,3,01,03,07,09,14,22,30,,,,,,2.6,1.5,2.1*3B
2021/08/26,07:19:14,0.53,$GPGGA,101916.0,0553.393484,S,03512.457319,W,1,07,1.1,50.8,M,0.0,M,,*5D,$GPGSA,A,3,01,03,07,09,14,22,30,,,,,,2.2,1.1,1.8*31
2021/08/26,07:19:15,0.42,$GPGGA,101917.0,0553.398773,S,03512.453342,W,1,07,1.5,51.0,M,0.0,M,,*5B,$GPGSA,A,3,01,03,07,09,14,22,30,,,,,,2.6,1.5,2.1*3B
2021/08/26,07:19:16,0.42,$GPGGA,101918.0,0553.404427,S,03512.448770,W,1,07,1.0,51.1,M,0.0,M,,*5F,$GPGSA,A,3,01,03,07,09,14,22,30,,,,,,1.9,1.0,1.6*36
2021/08/26,07:19:17,0.41,$GPGGA,101919.0,0553.410122,S,03512.444399,W,1,07,1.5,51.2,M,0.0,M,,*52,$GPGSA,A,3,01,03,07,09,14,22,30,,,,,,2.6,1.5,2.1*3B
2021/08/26,07:19:18,0.39,$GPGGA,101920.0,0553.415657,S,03512.439898,W,1,07,1.0,50.8,M,0.0,M,,*56,$GPGSA,A,3,01,03,07,09,14,22,30,,,,,,1.9,1.0,1.6*36
2021/08/26,07:19:19,0.36,$GPGGA,101921.0,0553.421345,S,03512.435285,W,1,07,1.0,50.6,M,0.0,M,,*52,$GPGSA,A,3,01,03,07,09,14,22,30,,,,,,1.9,1.0,1.6*36
2021/08/26,07:19:20,0.36,$GPGGA,101922.0,0553.427061,S,03512.430688,W,1,07,1.0,50.5,M,0.0,M,,*5D,$GPGSA,A,3,01,03,07,09,14,22,30,,,,,,1.9,1.0,1.6*36
2021/08/26,07:19:21,0.37,$GPGGA,101923.0,0553.432828,S,03512.426300,W,1,07,1.0,50.3,M,0.0,M,,*59,$GPGSA,A,3,01,03,07,09,14,22,30,,,,,,1.9,1.0,1.6*36
2021/08/26,07:19:22,0.34,$GPGGA,101924.0,0553.438542,S,03512.421776,W,1,07,1.0,49.9,M,0.0,M,,*55,$GPGSA,A,3,01,03,07,09,14,22,30,,,,,,1.9,1.0,1.6*36
2021/08/26,07:19:23,0.32,$GPGGA,101925.0,0553.443929,S,03512.417611,W,1,07,0.9,49.9,M,0.0,M,,*54,$GPGSA,A,3,01,03,07,09,14,22,30,,,,,,1.7,0.9,1.4*32
2021/08/26,07:19:24,0.33,$GPGGA,101926.0,0553.449503,S,03512.413388,W,1,07,1.5,49.3,M,0.0,M,,*5F,$GPGSA,A,3,01,03,07,09,14,22,30,,,,,,2.6,1.5,2.1*3B
2021/08/26,07:19:25,0.30,$GPGGA,101927.0,0553.455069,S,03512.409208,W,1,07,1.0,49.0,M,0.0,M,,*5E,$GPGSA,A,3,01,03,07,09,14,22,30,,,,,,1.9,1.0,1.6*36
2021/08/26,07:19:26,0.36,$GPGGA,101928.0,0553.460668,S,03512.405043,W,1,07,1.5,49.5,M,0.0,M,,*51,$GPGSA,A,3,01,03,07,09,14,22,30,,,,,,2.6,1.5,2.1*3B
2021/08/26,07:19:27,0.62,$GPGGA,101929.0,0553.466300,S,03512.400781,W,1,07,1.5,49.9,M,0.0,M,,*5D,$GPGSA,A,3,01,03,07,09,14,22,30,,,,,,2.6,1.5,2.1*3B
2021/08/26,07:19:28,0.73,$GPGGA,101930.0,0553.472097,S,03512.396103,W,1,07,1.1,49.4,M,0.0,M,,*50,$GPGSA,A,3,01,03,07,09,14,22,30,,,,,,2.2,1.1,1.8*31
2021/08/26,07:19:29,0.54,$GPGGA,101931.0,0553.477843,S,03512.391809,W,1,07,1.3,49.2,M,0.0,M,,*55,$GPGSA,A,3,01,03,07,09,14,22,30,,,,,,2.1,1.3,1.7*3F
2021/08/26,07:19:30,0.37,$GPGGA,101932.0,0553.483333,S,03512.387745,W,1,08,0.9,49.6,M,0.0,M,,*51,$GPGSA,A,3,01,03,07,09,14,16,22,30,,,,,1.8,0.9,1.6*38
2021/08/26,07:19:31,0.27,$GPGGA,101933.0,0553.489049,S,03512.383185,W,1,08,0.9,49.1,M,0.0,M,,*5D,$GPGSA,A,3,01,03,07,09,14,16,22,30,,,,,1.8,0.9,1.6*38
2021/08/26,07:19:32,0.25,$GPGGA,101934.0,0553.494859,S,03512.378666,W,1,08,0.9,49.3,M,0.0,M,,*53,$GPGSA,A,3,01,03,07,09,14,16,22,30,,,,,1.8,0.9,1.6*38
2021/08/26,07:19:33,0.26,$GPGGA,101935.0,0553.500341,S,03512.374119,W,1,08,1.0,49.1,M,0.0,M,,*55,$GPGSA,A,3,01,03,07,09,14,16,22,30,,,,,1.9,1.0,1.6*31
2021/08/26,07:19:34,0.29,$GPGGA,101936.0,0553.505823,S,03512.369717,W,1,08,1.0,48.5,M,0.0,M,,*5D,$GPGSA,A,3,01,03,07,09,14,16,22,30,,,,,1.9,1.0,1.6*31
2021/08/26,07:19:35,0.27,$GPGGA,101937.0,0553.511367,S,03512.365358,W,1,08,0.9,48.2,M,0.0,M,,*5E,$GPGSA,A,3,01,03,07,09,14,16,22,30,,,,,1.8,0.9,1.6*38
2021/08/26,07:19:36,0.25,$GPGGA,101938.0,0553.516855,S,03512.361118,W,1,08,1.0,47.9,M,0.0,M,,*52,$GPGSA,A,3,01,03,07,09,14,16,22,30,,,,,1.9,1.0,1.6*31
2021/08/26,07:19:37,0.29,$GPGGA,101939.0,0553.522053,S,03512.356800,W,1,07,1.0,47.6,M,0.0,M,,*5E,$GPGSA,A,3,01,03,07,09,14,22,30,,,,,,1.9,1.0,1.6*36
2021/08/26,07:19:38,0.43,$GPGGA,101940.0,0553.527220,S,03512.352647,W,1,07,1.0,47.2,M,0.0,M,,*5E,$GPGSA,A,3,01,03,07,09,14,22,30,,,,,,1.9,1.0,1.6*36
2021/08/26,07:19:39,0.35,$GPGGA,101941.0,0553.531826,S,03512.348868,W,1,07,1.1,47.1,M,0.0,M,,*5E,$GPGSA,A,3,01,03,07,09,14,22,30,,,,,,2.2,1.1,1.8*31
2021/08/26,07:19:40,1.00,$GPGGA,101942.0,0553.536720,S,03512.345082,W,1,07,1.5,46.6,M,0.0,M,,*50,$GPGSA,A,3,01,03,07,09,14,22,30,,,,,,2.6,1.5,2.1*3B
2021/08/26,07:19:41,0.71,$GPGGA,101943.0,0553.541712,S,03512.341135,W,1,07,1.1,46.4,M,0.0,M,,*5F,$GPGSA,A,3,01,03,07,09,14,22,30,,,,,,2.2,1.1,1.8*31
2021/08/26,07:19:42,0.67,$GPGGA,101944.0,0553.546770,S,03512.337313,W,1,07,1.1,46.2,M,0.0,M,,*5A,$GPGSA,A,3,01,03,07,09,14,22,30,,,,,,2.2,1.1,1.8*31
2021/08/26,07:19:43,0.48,$GPGGA,101945.0,0553.551744,S,03512.333277,W,1,08,0.9,45.7,M,0.0,M,,*5D,$GPGSA,A,3,01,03,04,07,09,14,22,30,,,,,1.8,0.9,1.6*3B
2021/08/26,07:19:44,0.36,$GPGGA,101946.0,0553.556459,S,03512.329693,W,1,08,0.9,45.7,M,0.0,M,,*53,$GPGSA,A,3,01,03,04,07,09,14,22,30,,,,,1.8,0.9,1.6*3B
2021/08/26,07:19:45,0.64,$GPGGA,101947.0,0553.561022,S,03512.325892,W,1,08,0.9,45.6,M,0.0,M,,*5C,$GPGSA,A,3,01,03,04,07,09,14,22,30,,,,,1.8,0.9,1.6*3B
2021/08/26,07:19:46,0.26,$GPGGA,101948.0,0553.565955,S,03512.321988,W,1,08,0.9,45.4,M,0.0,M,,*52,$GPGSA,A,3,01,03,04,07,09,14,22,30,,,,,1.8,0.9,1.6*3B
2021/08/26,07:19:47,0.25,$GPGGA,101949.0,0553.570632,S,03512.318572,W,1,08,0.9,45.2,M,0.0,M,,*5C,$GPGSA,A,3,01,03,04,07,09,14,22,30,,,,,1.8,0.9,1.6*3B
2021/08/26,07:19:48,0.35,$GPGGA,101950.0,0553.575244,S,03512.314977,W,1,08,1.1,46.5,M,0.0,M,,*5C,$GPGSA,A,3,01,03,04,07,09,14,22,30,,,,,2.2,1.1,1.8*35
2021/08/26,07:19:49,0.46,$GPGGA,101951.0,0553.580042,S,03512.311434,W,1,08,1.1,47.3,M,0.0,M,,*5B,$GPGSA,A,3,01,03,04,07,09,14,22,30,,,,,2.2,1.1,1.8*35
2021/08/26,07:19:50,0.77,$GPGGA,101952.0,0553.585409,S,03512.307573,W,1,07,0.9,47.9,M,0.0,M,,*5F,$GPGSA,A,3,01,03,07,09,14,22,30,,,,,,1.8,0.9,1.6*3F
2021/08/26,07:19:51,0.83,$GPGGA,101953.0,0553.590734,S,03512.303541,W,1,07,1.1,47.6,M,0.0,M,,*54,$GPGSA,A,3,01,03,07,09,14,22,30,,,,,,2.2,1.1,1.8*31
2021/08/26,07:19:52,0.72,$GPGGA,101954.0,0553.595937,S,03512.299323,W,1,07,1.1,47.8,M,0.0,M,,*55,$GPGSA,A,3,01,03,07,09,14,22,30,,,,,,2.2,1.1,1.8*31
2021/08/26,07:19:53,0.63,$GPGGA,101955.0,0553.600872,S,03512.295031,W,1,07,0.9,47.7,M,0.0,M,,*51,$GPGSA,A,3,01,03,07,09,14,22,30,,,,,,1.8,0.9,1.6*3F
2021/08/26,07:19:54,0.76,$GPGGA,101956.0,0553.605833,S,03512.291062,W,1,07,0.9,47.1,M,0.0,M,,*56,$GPGSA,A,3,01,03,07,09,14,22,30,,,,,,1.8,0.9,1.6*3F
2021/08/26,07:19:55,0.51,$GPGGA,101957.0,0553.610712,S,03512.287107,W,1,07,0.9,46.8,M,0.0,M,,*52,$GPGSA,A,3,01,03,07,09,14,22,30,,,,,,1.8,0.9,1.6*3F
2021/08/26,07:19:56,0.33,$GPGGA,101958.0,0553.615648,S,03512.283019,W,1,07,0.9,46.5,M,0.0,M,,*51,$GPGSA,A,3,01,03,07,09,14,22,30,,,,,,1.8,0.9,1.6*3F
2021/08/26,07:19:57,0.63,$GPGGA,101959.0,0553.620541,S,03512.279170,W,1,07,0.9,46.8,M,0.0,M,,*5A,$GPGSA,A,3,01,03,07,09,14,22,30,,,,,,1.8,0.9,1.6*3F
2021/08/26,07:19:58,0.51,$GPGGA,102000.0,0553.625526,S,03512.275155,W,1,07,0.9,46.7,M,0.0,M,,*5C,$GPGSA,A,3,01,03,07,09,14,22,30,,,,,,1.8,0.9,1.6*3F
2021/08/26,07:19:59,0.47,$GPGGA,102001.0,0553.630474,S,03512.271302,W,1,07,0.9,46.7,M,0.0,M,,*5B,$GPGSA,A,3,01,03,07,09,14,22,30,,,,,,1.8,0.9,1.6*3F
2021/08/26,07:20:00,0.34,$GPGGA,102002.0,0553.635184,S,03512.267779,W,1,07,0.9,46.8,M,0.0,M,,*57,$GPGSA,A,3,01,03,07,09,14,22,30,,,,,,1.8,0.9,1.6*3F
2021/08/26,07:20:01,0.42,$GPGGA,102003.0,0553.639730,S,03512.264226,W,1,07,0.9,46.7,M,0.0,M,,*50,$GPGSA,A,3,01,03,07,09,14,22,30,,,,,,1.8,0.9,1.6*3F
2021/08/26,07:20:02,0.42,$GPGGA,102004.0,0553.644396,S,03512.260362,W,1,08,0.9,46.9,M,0.0,M,,*51,$GPGSA,A,3,01,03,07,09,14,16,22,30,,,,,1.8,0.9,1.6*38
2021/08/26,07:20:03,0.62,$GPGGA,102005.0,0553.648835,S,03512.256894,W,1,08,1.0,46.9,M,0.0,M,,*51,$GPGSA,A,3,01,03,07,09,14,16,22,30,,,,,1.9,1.0,1.6*31
2021/08/26,07:20:04,0.62,$GPGGA,102006.0,0553.653342,S,03512.253179,W,1,08,1.5,47.1,M,0.0,M,,*50,$GPGSA,A,3,01,03,07,09,14,16,22,30,,,,,2.6,1.5,2.1*3C
2021/08/26,07:20:05,0.40,$GPGGA,102007.0,0553.657877,S,03512.249256,W,1,08,1.5,47.2,M,0.0,M,,*5E,$GPGSA,A,3,01,03,07,09,14,16,22,30,,,,,2.6,1.5,2.1*3C
2021/08/26,07:20:06,0.57,$GPGGA,102008.0,0553.661995,S,03512.244972,W,1,08,1.1,47.4,M,0.0,M,,*5B,$GPGSA,A,3,01,03,07,09,14,16,22,30,,,,,2.2,1.1,1.8*36
2021/08/26,07:20:07,0.69,$GPGGA,102009.0,0553.665854,S,03512.240920,W,1,09,1.1,47.3,M,0.0,M,,*57,$GPGSA,A,3,01,03,04,07,09,14,16,22,30,,,,2.2,1.1,1.8*32
2021/08/26,07:20:08,0.37,$GPGGA,102010.0,0553.669929,S,03512.236643,W,1,09,0.9,47.8,M,0.0,M,,*51,$GPGSA,A,3,01,03,04,07,09,14,16,22,30,,,,1.8,0.9,1.6*3C
2021/08/26,07:20:09,0.47,$GPGGA,102011.0,0553.674484,S,03512.232275,W,1,10,0.8,48.3,M,0.0,M,,*5E,$GPGSA,A,3,01,03,04,07,09,14,16,21,22,30,,,1.7,0.8,1.4*33
2021/08/26,07:20:10,0.53,$GPGGA,102012.0,0553.678952,S,03512.227566,W,1,10,0.8,48.5,M,0.0,M,,*50,$GPGSA,A,3,01,03,04,07,09,14,16,21,22,30,,,1.7,0.8,1.4*33
2021/08/26,07:20:11,0.70,$GPGGA,102013.0,0553.683125,S,03512.223061,W,1,10,0.8,48.5,M,0.0,M,,*5B,$GPGSA,A,3,01,03,04,07,09,14,16,21,22,30,,,1.7,0.8,1.4*33
2021/08/26,07:20:12,1.19,$GPGGA,102014.0,0553.686971,S,03512.218280,W,1,10,0.8,48.2,M,0.0,M,,*52,$GPGSA,A,3,01,03,04,07,09,14,16,21,22,30,,,1.7,0.8,1.4*33
2021/08/26,07:20:13,0.79,$GPGGA,102015.0,0553.691197,S,03512.213489,W,1,10,0.8,48.4,M,0.0,M,,*57,$GPGSA,A,3,01,03,04,07,09,14,16,21,22,30,,,1.7,0.8,1.4*33
2021/08/26,07:20:14,0.56,$GPGGA,102016.0,0553.695577,S,03512.208601,W,1,10,0.8,48.6,M,0.0,M,,*50,$GPGSA,A,3,01,03,04,07,09,14,16,21,22,30,,,1.7,0.8,1.4*33
2021/08/26,07:20:15,0.47,$GPGGA,102017.0,0553.699743,S,03512.203745,W,1,10,0.8,49.1,M,0.0,M,,*54,$GPGSA,A,3,01,03,04,07,09,14,16,21,22,30,,,1.7,0.8,1.4*33
2021/08/26,07:20:16,1.33,$GPGGA,102018.0,0553.704004,S,03512.198917,W,1,10,1.0,49.4,M,0.0,M,,*5E,$GPGSA,A,3,01,03,04,07,09,14,16,21,22,30,,,1.9,1.0,1.6*36
2021/08/26,07:20:17,2.08,$GPGGA,102019.0,0553.708395,S,03512.193943,W,1,09,1.0,50.1,M,0.0,M,,*57,$GPGSA,A,3,01,03,04,07,09,14,21,22,30,,,,1.9,1.0,1.6*31
2021/08/26,07:20:18,1.30,$GPGGA,102020.0,0553.712606,S,03512.188226,W,1,09,1.0,49.1,M,0.0,M,,*53,$GPGSA,A,3,01,03,04,07,09,14,21,22,30,,,,1.9,1.0,1.6*31
2021/08/26,07:20:19,1.59,$GPGGA,102021.0,0553.716633,S,03512.183283,W,1,09,1.0,48.8,M,0.0,M,,*5C,$GPGSA,A,3,01,03,04,07,09,14,21,22,30,,,,1.9,1.0,1.6*31
2021/08/26,07:20:20,1.42,$GPGGA,102022.0,0553.720990,S,03512.177959,W,1,09,1.0,48.4,M,0.0,M,,*57,$GPGSA,A,3,01,03,04,07,09,14,21,22,30,,,,1.9,1.0,1.6*31
2021/08/26,07:20:21,1.38,$GPGGA,102023.0,0553.725200,S,03512.172810,W,1,09,1.0,48.5,M,0.0,M,,*59,$GPGSA,A,3,01,03,04,07,09,14,21,22,30,,,,1.9,1.0,1.6*31
2021/08/26,07:20:22,0.49,$GPGGA,102024.0,0553.729330,S,03512.167575,W,1,09,0.8,47.8,M,0.0,M,,*51,$GPGSA,A,3,01,03,04,07,09,14,21,22,30,,,,1.7,0.8,1.4*34
2021/08/26,07:20:23,0.54,$GPGGA,102025.0,0553.733766,S,03512.162141,W,1,10,0.8,47.1,M,0.0,M,,*5B,$GPGSA,A,3,01,03,04,07,09,14,16,21,22,30,,,1.7,0.8,1.4*33
2021/08/26,07:20:24,1.00,$GPGGA,102026.0,0553.738032,S,03512.157086,W,1,09,0.8,46.8,M,0.0,M,,*59,$GPGSA,A,3,01,03,04,07,09,14,16,22,30,,,,1.7,0.8,1.4*30
2021/08/26,07:20:25,1.79,$GPGGA,102027.0,0553.741966,S,03512.152146,W,1,09,0.8,46.7,M,0.0,M,,*59,$GPGSA,A,3,01,03,04,07,09,14,16,22,30,,,,1.7,0.8,1.4*30
2021/08/26,07:20:26,1.55,$GPGGA,102028.0,0553.745635,S,03512.147966,W,1,10,0.8,47.1,M,0.0,M,,*5A,$GPGSA,A,3,01,03,04,07,09,14,16,21,22,30,,,1.7,0.8,1.4*33
2021/08/26,07:20:27,1.51,$GPGGA,102029.0,0553.748831,S,03512.144272,W,1,10,0.8,47.1,M,0.0,M,,*51,$GPGSA,A,3,01,03,04,07,09,14,16,21,22,30,,,1.7,0.8,1.4*33
2021/08/26,07:20:28,1.07,$GPGGA,102030.0,0553.752198,S,03512.140546,W,1,10,0.8,47.3,M,0.0,M,,*5E,$GPGSA,A,3,01,03,04,07,09,14,16,21,22,30,,,1.7,0.8,1.4*33
2021/08/26,07:20:29,1.27,$GPGGA,102031.0,0553.755368,S,03512.137001,W,1,10,0.8,47.4,M,0.0,M,,*54,$GPGSA,A,3,01,03,04,07,09,14,16,21,22,30,,,1.7,0.8,1.4*33
2021/08/26,07:20:30,1.07,$GPGGA,102032.0,0553.758339,S,03512.133532,W,1,10,0.8,47.2,M,0.0,M,,*59,$GPGSA,A,3,01,03,04,07,09,14,16,21,22,30,,,1.7,0.8,1.4*33
2021/08/26,07:20:31,1.15,$GPGGA,102033.0,0553.761699,S,03512.129477,W,1,10,0.8,46.9,M,0.0,M,,*5C,$GPGSA,A,3,01,03,04,07,09,14,16,21,22,30,,,1.7,0.8,1.4*33
2021/08/26,07:20:32,1.16,$GPGGA,102034.0,0553.764802,S,03512.125716,W,1,10,0.8,46.6,M,0.0,M,,*55,$GPGSA,A,3,01,03,04,07,09,14,16,21,22,30,,,1.7,0.8,1.4*33
2021/08/26,07:20:33,0.83,$GPGGA,102035.0,0553.768130,S,03512.121893,W,1,10,0.8,46.9,M,0.0,M,,*59,$GPGSA,A,3,01,03,04,07,09,14,16,21,22,30,,,1.7,0.8,1.4*33
2021/08/26,07:20:34,0.65,$GPGGA,102036.0,0553.771299,S,03512.117841,W,1,10,0.8,46.4,M,0.0,M,,*55,$GPGSA,A,3,01,03,04,07,09,14,16,21,22,30,,,1.7,0.8,1.4*33
2021/08/26,07:20:35,0.57,$GPGGA,102037.0,0553.774320,S,03512.113927,W,1,10,0.8,46.4,M,0.0,M,,*57,$GPGSA,A,3,01,03,04,07,09,14,16,21,22,30,,,1.7,0.8,1.4*33
2021/08/26,07:20:36,0.53,$GPGGA,102038.0,0553.777509,S,03512.110226,W,1,10,0.8,46.6,M,0.0,M,,*5D,$GPGSA,A,3,01,03,04,07,09,14,16,21,22,30,,,1.7,0.8,1.4*33
2021/08/26,07:20:37,1.03,$GPGGA,102039.0,0553.780953,S,03512.106201,W,1,10,0.8,46.8,M,0.0,M,,*5B,$GPGSA,A,3,01,03,04,07,09,14,16,21,22,30,,,1.7,0.8,1.4*33
2021/08/26,07:20:38,0.59,$GPGGA,102040.0,0553.783397,S,03512.103423,W,1,10,1.0,46.6,M,0.0,M,,*50,$GPGSA,A,3,01,03,04,07,09,14,16,21,22,30,,,1.9,1.0,1.6*36
2021/08/26,07:20:39,0.60,$GPGGA,102041.0,0553.786178,S,03512.100585,W,1,10,1.0,46.4,M,0.0,M,,*5B,$GPGSA,A,3,01,03,04,07,09,14,16,21,22,30,,,1.9,1.0,1.6*36
2021/08/26,07:20:40,0.71,$GPGGA,102042.0,0553.789017,S,03512.097467,W,1,10,1.0,46.4,M,0.0,M,,*5D,$GPGSA,A,3,01,03,04,07,09,14,16,21,22,30,,,1.9,1.0,1.6*36
2021/08/26,07:20:41,0.67,$GPGGA,102043.0,0553.791406,S,03512.094873,W,1,10,1.0,46.6,M,0.0,M,,*59,$GPGSA,A,3,01,03,04,07,09,14,16,21,22,30,,,1.9,1.0,1.6*36
2021/08/26,07:20:42,0.60,$GPGGA,102044.0,0553.793630,S,03512.092168,W,1,10,0.8,46.7,M,0.0,M,,*56,$GPGSA,A,3,01,03,04,07,09,14,16,21,22,30,,,1.7,0.8,1.4*33
2021/08/26,07:20:43,0.66,$GPGGA,102045.0,0553.795520,S,03512.090310,W,1,10,0.8,47.7,M,0.0,M,,*5D,$GPGSA,A,3,01,03,04,07,09,14,16,21,22,30,,,1.7,0.8,1.4*33
2021/08/26,07:20:44,0.54,$GPGGA,102046.0,0553.797248,S,03512.088157,W,1,10,0.8,47.6,M,0.0,M,,*5C,$GPGSA,A,3,01,03,04,07,09,14,16,21,22,30,,,1.7,0.8,1.4*33
2021/08/26,07:20:45,0.34,$GPGGA,102047.0,0553.799079,S,03512.086065,W,1,10,0.8,47.7,M,0.0,M,,*5C,$GPGSA,A,3,01,03,04,07,09,14,16,21,22,30,,,1.7,0.8,1.4*33
2021/08/26,07:20:46,0.50,$GPGGA,102048.0,0553.800752,S,03512.084188,W,1,10,0.8,47.5,M,0.0,M,,*50,$GPGSA,A,3,01,03,04,07,09,14,16,21,22,30,,,1.7,0.8,1.4*33
2021/08/26,07:20:47,0.46,$GPGGA,102049.0,0553.802309,S,03512.082320,W,1,10,0.8,47.1,M,0.0,M,,*5B,$GPGSA,A,3,01,03,04,07,09,14,16,21,22,30,,,1.7,0.8,1.4*33
2021/08/26,07:20:48,0.52,$GPGGA,102050.0,0553.803624,S,03512.080652,W,1,10,0.9,47.7,M,0.0,M,,*5D,$GPGSA,A,3,01,03,04,07,09,14,16,21,22,30,,,1.7,0.9,1.4*32
2021/08/26,07:20:49,0.48,$GPGGA,102051.0,0553.804713,S,03512.079211,W,1,10,0.8,47.5,M,0.0,M,,*58,$GPGSA,A,3,01,03,04,07,09,14,16,21,22,30,,,1.7,0.8,1.4*33
2021/08/26,07:20:50,0.46,$GPGGA,102052.0,0553.805697,S,03512.078114,W,1,10,0.8,47.5,M,0.0,M,,*50,$GPGSA,A,3,01,03,04,07,09,14,16,21,22,30,,,1.7,0.8,1.4*33
2021/08/26,07:20:51,0.73,$GPGGA,102053.0,0553.806480,S,03512.077299,W,1,10,0.9,47.1,M,0.0,M,,*5A,$GPGSA,A,3,01,03,04,07,09,14,16,21,22,30,,,1.7,0.9,1.4*32
2021/08/26,07:20:52,0.54,$GPGGA,102054.0,0553.807211,S,03512.076259,W,1,10,0.9,47.1,M,0.0,M,,*5F,$GPGSA,A,3,01,03,04,07,09,14,16,21,22,30,,,1.7,0.9,1.4*32
2021/08/26,07:20:53,0.79,$GPGGA,102055.0,0553.807763,S,03512.075676,W,1,09,0.9,46.6,M,0.0,M,,*5A,$GPGSA,A,3,01,03,07,09,14,16,21,22,30,,,,1.7,0.9,1.4*36
2021/08/26,07:20:54,0.67,$GPGGA,102056.0,0553.808117,S,03512.075278,W,1,09,0.9,46.6,M,0.0,M,,*59,$GPGSA,A,3,01,03,07,09,14,16,21,22,30,,,,1.7,0.9,1.4*36
2021/08/26,07:20:55,0.60,$GPGGA,102057.0,0553.808714,S,03512.074548,W,1,09,1.0,47.0,M,0.0,M,,*57,$GPGSA,A,3,01,03,07,09,14,16,21,22,30,,,,1.9,1.0,1.6*32
2021/08/26,07:20:56,0.66,$GPGGA,102058.0,0553.809438,S,03512.073659,W,1,09,1.0,47.2,M,0.0,M,,*52,$GPGSA,A,3,01,03,07,09,14,16,21,22,30,,,,1.9,1.0,1.6*32
2021/08/26,07:20:57,0.92,$GPGGA,102059.0,0553.810191,S,03512.072818,W,1,09,0.8,47.1,M,0.0,M,,*5D,$GPGSA,A,3,01,03,07,09,14,16,21,22,30,,,,1.7,0.8,1.4*37
2021/08/26,07:20:58,1.00,$GPGGA,102100.0,0553.811015,S,03512.071901,W,1,09,0.9,46.9,M,0.0,M,,*5E,$GPGSA,A,3,01,03,07,09,14,16,21,22,30,,,,1.7,0.9,1.4*36
2021/08/26,07:20:59,0.88,$GPGGA,102101.0,0553.811813,S,03512.070994,W,1,09,1.0,46.5,M,0.0,M,,*58,$GPGSA,A,3,01,03,07,09,14,16,21,22,30,,,,1.9,1.0,1.6*32
2021/08/26,07:21:00,0.98,$GPGGA,102102.0,0553.812857,S,03512.069776,W,1,09,0.9,46.8,M,0.0,M,,*57,$GPGSA,A,3,01,03,07,09,14,16,21,22,30,,,,1.7,0.9,1.4*36
2021/08/26,07:21:01,0.72,$GPGGA,102103.0,0553.813966,S,03512.068483,W,1,09,0.9,47.0,M,0.0,M,,*55,$GPGSA,A,3,01,03,07,09,14,16,21,22,30,,,,1.7,0.9,1.4*36
2021/08/26,07:21:02,0.39,$GPGGA,102104.0,0553.815302,S,03512.066926,W,1,09,0.9,46.9,M,0.0,M,,*58,$GPGSA,A,3,01,03,07,09,14,16,21,22,30,,,,1.7,0.9,1.4*36
2021/08/26,07:21:03,0.70,$GPGGA,102105.0,0553.816808,S,03512.065206,W,1,09,0.9,46.6,M,0.0,M,,*5E,$GPGSA,A,3,01,03,07,09,14,16,21,22,30,,,,1.7,0.9,1.4*36
2021/08/26,07:21:04,0.71,$GPGGA,102106.0,0553.818546,S,03512.063174,W,1,09,0.9,47.0,M,0.0,M,,*53,$GPGSA,A,3,01,03,07,09,14,16,21,22,30,,,,1.7,0.9,1.4*36
2021/08/26,07:21:05,0.54,$GPGGA,102107.0,0553.821803,S,03512.059432,W,1,09,0.9,47.2,M,0.0,M,,*58,$GPGSA,A,3,01,03,07,09,14,16,21,22,30,,,,1.7,0.9,1.4*36
2021/08/26,07:21:06,0.53,$GPGGA,102108.0,0553.824626,S,03512.056260,W,1,09,0.9,48.5,M,0.0,M,,*5D,$GPGSA,A,3,01,03,07,09,14,16,21,22,30,,,,1.7,0.9,1.5*37
2021/08/26,07:21:07,0.41,$GPGGA,102109.0,0553.826887,S,03512.053572,W,1,10,0.9,48.8,M,0.0,M,,*5F,$GPGSA,A,3,01,03,04,07,09,14,16,21,22,30,,,1.7,0.9,1.5*33
2021/08/26,07:21:08,0.36,$GPGGA,102110.0,0553.829055,S,03512.051656,W,1,10,0.8,49.6,M,0.0,M,,*56,$GPGSA,A,3,01,03,04,07,09,14,16,21,22,30,,,1.7,0.8,1.4*33
2021/08/26,07:21:09,0.46,$GPGGA,102111.0,0553.831532,S,03512.048803,W,1,10,0.8,50.1,M,0.0,M,,*53,$GPGSA,A,3,01,03,04,07,09,14,16,21,22,30,,,1.7,0.8,1.4*33
2021/08/26,07:21:10,0.64,$GPGGA,102112.0,0553.834979,S,03512.044835,W,1,10,0.8,50.3,M,0.0,M,,*5D,$GPGSA,A,3,01,03,04,07,09,14,16,21,22,30,,,1.7,0.8,1.4*33
2021/08/26,07:21:11,0.34,$GPGGA,102113.0,0553.837849,S,03512.041147,W,1,10,0.8,50.1,M,0.0,M,,*56,$GPGSA,A,3,01,03,04,07,09,14,16,21,22,30,,,1.7,0.8,1.4*33
2021/08/26,07:21:12,0.33,$GPGGA,102114.0,0553.840874,S,03512.036920,W,1,10,0.8,50.1,M,0.0,M,,*56,$GPGSA,A,3,01,03,04,07,09,14,16,21,22,30,,,1.7,0.8,1.4*33
2021/08/26,07:21:13,0.36,$GPGGA,102115.0,0553.843804,S,03512.032809,W,1,10,0.8,50.2,M,0.0,M,,*5E,$GPGSA,A,3,01,03,04,07,09,14,16,21,22,30,,,1.7,0.8,1.4*33
2021/08/26,07:21:14,0.34,$GPGGA,102116.0,0553.846809,S,03512.028412,W,1,10,0.8,50.4,M,0.0,M,,*5E,$GPGSA,A,3,01,03,04,07,09,14,16,21,22,30,,,1.7,0.8,1.4*33
2021/08/26,07:21:15,0.36,$GPGGA,102117.0,0553.849858,S,03512.023968,W,1,10,0.8,50.3,M,0.0,M,,*58,$GPGSA,A,3,01,03,04,07,09,14,16,21,22,30,,,1.7,0.8,1.4*33
2021/08/26,07:21:16,0.43,$GPGGA,102118.0,0553.853417,S,03512.019288,W,1,10,0.8,50.1,M,0.0,M,,*55,$GPGSA,A,3,01,03,04,07,09,14,16,21,22,30,,,1.7,0.8,1.4*33
2021/08/26,07:21:17,0.34,$GPGGA,102119.0,0553.857031,S,03512.014759,W,1,10,0.8,50.1,M,0.0,M,,*54,$GPGSA,A,3,01,03,04,07,09,14,16,21,22,30,,,1.7,0.8,1.4*33
2021/08/26,07:21:18,0.34,$GPGGA,102120.0,0553.860852,S,03512.010155,W,1,10,0.8,49.9,M,0.0,M,,*59,$GPGSA,A,3,01,03,04,07,09,14,16,21,22,30,,,1.7,0.8,1.4*33
2021/08/26,07:21:19,0.36,$GPGGA,102121.0,0553.864568,S,03512.005948,W,1,10,0.8,50.2,M,0.0,M,,*5B,$GPGSA,A,3,01,03,04,07,09,14,16,21,22,30,,,1.7,0.8,1.4*33
2021/08/26,07:21:20,0.43,$GPGGA,102122.0,0553.867516,S,03512.002333,W,1,10,0.8,50.6,M,0.0,M,,*57,$GPGSA,A,3,01,03,04,07,09,14,16,21,22,30,,,1.7,0.8,1.4*33
2021/08/26,07:21:21,0.33,$GPGGA,102123.0,0553.869728,S,03511.999266,W,1,10,0.8,50.9,M,0.0,M,,*51,$GPGSA,A,3,01,03,04,07,09,14,16,21,22,30,,,1.7,0.8,1.4*33
2021/08/26,07:21:22,0.29,$GPGGA,102124.0,0553.871517,S,03511.996892,W,1,10,0.8,50.7,M,0.0,M,,*51,$GPGSA,A,3,01,03,04,07,09,14,16,21,22,30,,,1.7,0.8,1.4*33
2021/08/26,07:21:23,0.47,$GPGGA,102125.0,0553.872524,S,03511.995394,W,1,10,0.9,50.5,M,0.0,M,,*5E,$GPGSA,A,3,01,03,04,07,09,14,16,21,22,30,,,1.7,0.9,1.4*32
2021/08/26,07:21:24,0.31,$GPGGA,102126.0,0553.873046,S,03511.994706,W,1,10,0.8,50.5,M,0.0,M,,*52,$GPGSA,A,3,01,03,04,07,09,14,16,21,22,30,,,1.7,0.8,1.4*33
2021/08/26,07:21:25,0.38,$GPGGA,102127.0,0553.873133,S,03511.994470,W,1,10,0.8,51.0,M,0.0,M,,*56,$GPGSA,A,3,01,03,04,07,09,14,16,21,22,30,,,1.7,0.8,1.4*33
2021/08/26,07:21:26,0.27,$GPGGA,102128.0,0553.872982,S,03511.994378,W,1,10,0.8,51.3,M,0.0,M,,*56,$GPGSA,A,3,01,03,04,07,09,14,16,21,22,30,,,1.7,0.8,1.4*33
